stop_id, stop_code, stop_name, stop_lat, stop_lon
0486,0486,86-ти Пощенски Клон,42.6148017859,23.4155913087
2043,2043,Ул. Маломир,42.6556672404,23.2655466824
2752,2752,Метростанция Акад. А. Т.- Балан,42.6403828757,23.3727976342
1357,1357,По Желание,42.7413928894,23.5552222227
2101,2101,Ул. Охрид,42.7098664214,23.3139290999
2657,2657,В.з. Бункера-по Желание,42.6092498243,23.3663929413
0159,0159,Бл. 206 Ж.к. Дружба-2,42.6550831635,23.3995760495
1424,1424,Начало Кв. Михайлово - По Желание,42.7040365101,23.1274920906
1640,1640,Промишлена Зона Бусманци,42.6723934837,23.4388374479
1913,1913,Ул. Граф Игнатиев,42.686643609,23.3320168063
1798,1798,Културен Център Люлин,42.7185372545,23.2464934367
1101,1101,Моста На Р. Искър Кв. Абдовица,42.6654186924,23.4221154649
1458,1458,Разклона За Кв.симеоново,42.6336055636,23.3327100236
2859,2859,Ловен Парк,42.6697207884,23.3322755491
0692,0692,Ж.к. Хаджи Димитър,42.7101605284,23.3491309922
0812,0812,Метростанция Мизия,42.6822761778,23.2553418353
0567,0567,Балканкар Ад,42.6855331594,23.2743751768
2311,2311,Хладилен Завод,42.7082415814,23.3340879337
1212,1212,Разклона За Д.богров,42.7053862961,23.4866465992
1902,1902,Ул. Ген. Гурко,42.6897783637,23.3307901033
0270,0270,Бул. Акад. Ив. Гешов,42.678580293,23.3024991029
0259,0259,Ул. Зелен Бор - По Желание,42.6058760853,23.3482895892
0660,0660,Ж.к. Левски-г,42.7118753712,23.3799676997
0968,0968,Пазара Младост 1,42.6519607454,23.3745186819
0512,0512,Читалище Св.св. Кирил И Методий,42.7224485985,23.2697200253
0990,0990,Кулинарен К-т Пейфил,42.6387873098,23.3974382615
1758,1758,Толева Махала,42.7499902491,23.2204287295
2062,2062,Ул. Нишава,42.6699401558,23.3039075813
2370,2370,Църквата Св. Георги,42.696739772,23.2229625628
2834,2834,Разклона За С. Герман,42.6211064416,23.4202983306
0408,0408,В.з. Бункера - По Желание,42.6103552338,23.3637865665
0954,0954,Кметство Долни Богров,42.7000606929,23.4923281471
2826,2826,Бул. Витоша,42.6949663633,23.3200976832
0107,0107,Гробищен Парк Банкя,42.7145782177,23.1656601626
0450,0450,Гара Волуяк,42.7568947858,23.2444036627
0555,0555,Държавна Печатница,42.65686731,23.3851985807
0426,0426,Кв. Малинова Долина - По Желание,42.6378763637,23.3532595819
0371,0371,Бул. Проф.цв. Лазаров,42.6743424161,23.3805565468
1395,1395,Българска Телеграфна Агенция,42.68594591,23.3442609499
2697,2697,Разклона За Драгалевски Манастир,42.6198020947,23.2974593175
6455,6455,Пл. Княз Александър І,42.6962652116,23.3263194055
1567,1567,Пгсс,42.6795774612,23.2543824199
1783,1783,Триъгълника Ж.к. Люлин,42.7247496475,23.265518804
1155,1155,Ск Цска,42.6740901771,23.3750759587
2307,2307,Хиподрума Банкя - По Желание,42.722618635,23.201152525
0684,0684,Ж.к. Овча Купел-2,42.6830207295,23.2436713983
0255,0255,Бл. 89 Ж.к. Дружба-1,42.6708065558,23.3864882848
1816,1816,Ул. 9 - По Желание,42.634675298,23.3539287412
1933,1933,Ул. Добротич,42.6933497683,23.2822034756
0180,0180,Бл. 28 Ж.к. Левски-г,42.7132714884,23.3849592922
0206,0206,Мбал Токуда Болница,42.667773361,23.327131945
0396,0396,Хотел Хилтън,42.6852027943,23.3212136383
0667,0667,Ж.к. Младост-3,42.6403391909,23.386742228
2146,2146,Ул. Проф. Вайганд,42.6961521316,23.280918383
2382,2382,Студентски Град,42.6460129339,23.3343592649
2277,2277,90-то Соу,42.7263770148,23.2532132499
1128,1128,Начало С. Кътина,42.8408601061,23.3238358957
1346,1346,Моста На Симеоновска Река,42.6186345158,23.3340907206
1002,1002,Летище Доброславци,42.8132303789,23.2793139328
0207,0207,Бл. 402 Ж.к. Люлин-4,42.7196727539,23.239526112
1370,1370,По Желание,42.8486550105,23.2676719531
1851,1851,Ул. Бъдеще - По Желание,42.810285702,23.350595285
0997,0997,Къмпинга - По Желание,42.7187926187,23.1756597438
0972,0972,Корията,42.6328954435,23.4276478226
1658,1658,Езерото,42.7060831546,23.4737517298
1930,1930,Ул. Димитър Пешев,42.6404144203,23.4130954165
1195,1195,Умбал Св. Анна,42.6619369549,23.375213495
1331,1331,Централна Гара,42.7106809004,23.3187495919
0301,0301,Бул. Витоша,42.683736813,23.3147435706
2666,2666,Ул. Джерман - По Желание,42.7546911452,23.3187712345
2542,2542,Нсбал По Онкология,42.6630730656,23.3564261032
0448,0448,Гара Владая,42.622714005,23.1859705164
0992,0992,Културен Дом,42.7610201305,23.5622759347
1211,1211,Моста На Банишка Река - По Желание,42.6184300656,23.3581350264
2416,2416,Ул. Младост - По Желание,42.7998005615,23.4007897241
2632,2632,Ул. Вишновска - По Желание,42.7921872099,23.3103987491
2639,2639,Бл. 8 Ж.к. Кремиковци,42.7814172346,23.5062007825
0165,0165,Бл. 214 Ж.к. Борово,42.6688088326,23.2796319058
1210,1210,Моста На Банишка Река - По Желание,42.6190524561,23.35828812
0867,0867,Кв. Манастирски Ливади,42.6532805026,23.2943921894
2795,2795,София Тех Парк,42.6658216986,23.3730655334
2772,2772,Село Желява,42.7444816266,23.6054778634
1012,1012,Ж.к. Дървеница,42.6503585524,23.357876654
0757,0757,Инжстрой София Ад,42.7182252932,23.291657125
1606,1606,Ск На Нса,42.6440148651,23.3452145381
2847,2847,Пл. Сред Село,42.6613192519,23.2427510072
0086,0086,Комплекс На Бан,42.6537177373,23.3892876612
0342,0342,Бул. Никола Вапцаров,42.6643701257,23.3174751933
0537,0537,Производствен К-с Москва,42.7291818269,23.3246135313
1650,1650,Начало С. Голяновци,42.8259884858,23.2423957117
2372,2372,Дом На Културата Искър,42.6648917391,23.3993776506
2523,2523,По Желание - Нова Махала,42.695144949,23.4456553212
6,6,Опълченска,42.6998069199,23.3104674788
1939,1939,Ул. Дунав,42.7078751517,23.3297345523
1045,1045,Метростанция Вардар,42.706010752,23.2838043254
1419,1419,Простор,42.6955441276,23.244090793
0069,0069,Нбу,42.677690476,23.253838573
1006,1006,Летище София Терминал 1,42.6888667939,23.4030292037
1598,1598,Балкан Стар,42.7109814133,23.3506450006
1619,1619,Стадиона Банкя - По Желание,42.7096873593,23.160488116
0031,0031,36-то Соу,42.6743089568,23.2872074272
0610,0610,Ж.к. Люлин-3 - Ухо,42.7217264697,23.2405102931
0152,0152,Бл. 264 Ж.к. Люлин-2,42.7280097465,23.2462811558
0292,0292,Бул. Вардар,42.6959002582,23.2861570792
1780,1780,Триъгълника Кв. Горубляне,42.641972282,23.4027547698
2603,2603,Пътен Възел Калотина,42.7754615304,23.18109927
0242,0242,Бл. 620 Ж.к. Люлин-6,42.7086472814,23.2483516494
0021,0021,26-ти Дкц,42.7251010733,23.255577781
1334,1334,Плажа Панчарево,42.5873115745,23.4202220521
2038,2038,Ул. Люботрън,42.6687190903,23.3193390163
1819,1819,Ул. Александър Жендов,42.6777464286,23.3558251763
2159,2159,Ул. Рилска Обител,42.7013059311,23.3766175718
0792,0792,Кантона,42.4871864987,23.3835399162
0926,0926,Кино Одеон,42.6883069349,23.3272962005
0995,0995,Къмпинг Черния Кос - По Желание,42.648908122,23.211730297
0682,0682,Ж.к. Овча Купел-2,42.6826621079,23.2436037379
0984,0984,Ул. Врачанска,42.7722788951,23.4003660373
0566,0566,Балканкар Ад,42.6861436443,23.2748112237
310,310,Ндк 2,42.6889572198,23.3181509383
1526,1526,Център Долни Лозен,42.6033377289,23.4942130173
2547,2547,Бистришки Тераси - По Желание,42.598434135,23.3685016017
1441,1441,Махала Япаджа,42.7098558691,23.4317511
2402,2402,Ул. Васил Левски,42.6006383577,23.4959875129
2568,2568,Ж.к. Западен Парк,42.7014589934,23.2775334983
1820,1820,Ул. Александър Жендов,42.6773311904,23.3559045809
0921,0921,Ул. Чепинско Шосе,42.7233408105,23.3691334013
1609,1609,Ск На Нса,42.6438098961,23.3450238811
2622,2622,Автостанция Княжево,42.6583644786,23.2404749455
1051,1051,Метростанция К. Величков,42.7014427793,23.2975439786
1064,1064,Ул. 503,42.6931015686,23.3800505711
2626,2626,Околовръстен Път,42.6233175431,23.4213836534
1049,1049,Метростанция Западен Парк,42.7109378954,23.2696437999
2283,2283,152-ро Оу,42.6032479079,23.1754807712
6276,6276,Ул. Г. Измирлиев,42.6628957999,23.2921775151
6407,6407,Метростанция Опълченска,42.700116794,23.30951777
0603,0603,Ж.к. Дианабад,42.6573716184,23.3377130193
1716,1716,Община Люлин,42.7164254227,23.2504430057
2238,2238,Ул. Христо Ботев,42.7608678256,23.2018352015
0164,0164,Бл. 214 Ж.к. Борово,42.6691033099,23.2801481908
0328,0328,Бул. К. Величков,42.7066899284,23.299918737
1616,1616,Начало С. Доброславци,42.8184446563,23.2806826094
1361,1361,Махала Чемерник - По Желание,42.5261230263,23.3680827262
2379,2379,Южен Парк,42.6750103455,23.3079146774
1127,1127,Начало Кв. Клисура,42.7203962496,23.0966334501
1426,1426,Разклона За С. Герман,42.6358424396,23.4267350507
1515,1515,Кметство Владая,42.6283241978,23.195182603
1553,1553,Кметство Мърчаево,42.6002800534,23.1701848061
2578,2578,102-ро Оу,42.7359377841,23.3050307947
0189,0189,Техно Парк София,42.6494460544,23.4087627262
0820,0820,Кв. Видните,42.6586566221,23.4581183846
0476,0476,Гара София Север,42.7268403821,23.3150223857
0019,0019,24-ти Дкц,42.7367815861,23.301642073
0627,0627,Ж.к. Дианабад,42.6652593861,23.3554200757
2410,2410,Ул. Пролет,42.6305568189,23.1940511688
0778,0778,Ул. Инж. Георги Белов,42.6380643395,23.4064814946
2349,2349,Начало С. Житен,42.8114924385,23.256076779
2082,2082,Ул. Опълченска,42.7061702441,23.3110471944
1406,1406,28-ми Пощенски Клон,42.6636180568,23.4125219829
1849,1849,Ул. Буря,42.6685849199,23.2444517939
2492,2492,Кино Арена Іі,42.623768615,23.3768282159
1528,1528,Село Долни Пасарел,42.5415355871,23.4979826139
2522,2522,По Желание - Нова Махала,42.6950848673,23.4457789907
2740,2740,Метростанция Дружба,42.6570999384,23.395032141
210,210,Европейски Съюз,42.6785434458,23.3217902312
0092,0092,31-во Сучем,42.6873725011,23.3524575994
0930,0930,Киноцентър Бояна,42.6416940275,23.2930470257
1157,1157,Ул. Гюешево,42.6927932113,23.2950920999
0760,0760,Умбалсм Пирогов,42.6895276568,23.3056363628
2629,2629,Мировско Шосе - По Желание,42.7836612953,23.3095317244
2786,2786,Ул. Сочи,42.7094997025,23.1343876111
6297,6297,Центъра Банкя,42.7075892087,23.1462932237
0121,0121,Бкс Средец,42.6795461603,23.3873734883
0584,0584,Ж.к. Ботунец -2 - По Желание,42.7391686052,23.504540563
1831,1831,Ул. Баба Тонка - По Желание,42.8155074233,23.3523390995
6382,6382,Ул. Първа Българска Армия,42.7128877246,23.3439185131
1605,1605,Нпмг Акад. Любомир Чакалов,42.6686705849,23.3301214393
0669,0669,Ж.к. Младост-4,42.6257671829,23.3843655143
1582,1582,Разклона За Кв. Враждебна,42.7092732505,23.3999190573
1850,1850,Ул. Бъдеще - По Желание,42.8111218385,23.3510233082
1857,1857,Ул. Бяло Море,42.7022770344,23.3388248888
1287,1287,Пл. Орлов Мост,42.689337378,23.3389001392
1326,1326,Ул. Клокотница,42.7085197001,23.3180695309
1480,1480,Ул. Китен,42.625676112,23.1928350589
1548,1548,Село Мало Бучино,42.6820792691,23.1599826379
2564,2564,Ул. Георги Караславов,42.7381321305,23.2557314447
0422,0422,Ул. Златен Век,42.6227014405,23.3327703247
1132,1132,Начало С. Плана,42.4797328293,23.3985050012
1719,1719,Община Люлин,42.7165348628,23.249881545
1017,1017,Метростанция Цариградско Шосе,42.6491729066,23.3935869549
1179,1179,Околовръстен Път,42.6594063009,23.2647170824
1679,1679,Начало С. Подгумер - По Желание,42.7976993705,23.3981225983
1814,1814,Ул. 640,42.6803120407,23.246044779
0662,0662,Ж.к. Младост-1,42.6511076362,23.3674871807
0912,0912,Метростанция Витоша,42.6596628168,23.3173727151
1146,1146,Гробищен Парк Малашевци,42.7203056112,23.3627820213
1754,1754,Ул. Витиня,42.7087586598,23.3691788388
0395,0395,Бул. Черни Връх,42.6831266792,23.3198583407
1682,1682,Ул. Прилеп,42.6969943932,23.2187105508
2861,2861,Ж.к. Гоце Делчев,42.6607041104,23.2972423138
0597,0597,Ж.к. Гео Милев,42.6767198464,23.3696737719
1189,1189,Промишлена Зона - Ломско Шосе,42.754837681,23.2719542726
6038,6038,Метростанция Овча Купел,42.6821610142,23.2706289031
1050,1050,Метростанция К. Величков,42.7017865148,23.2977191463
2473,2473,Нова Телевизия,42.67978116,23.4002510863
0311,0311,Бул. Гоце Делчев,42.6765325652,23.2892749004
2791,2791,Разклона За Лифт Симеоново,42.6246132383,23.3496807111
1709,1709,Търговски К-с Обеля,42.7424019634,23.2807837631
0665,0665,Ж.к. Младост-3,42.6389093006,23.3863062819
2030,2030,Ул. Лиляче,42.6857342056,23.2669664916
2713,2713,Хотел-ресторант,42.6673385972,23.2188202359
1060,1060,Метростанция Сливница,42.7262568912,23.2627905665
1231,1231,Ул. Патриарх Дамян,42.7333310193,23.3026156271
306,306,Теaтрална,42.696745871,23.3468672007
0544,0544,Ритекс Ад,42.6649496641,23.4618826709
2092,2092,Ул. Орион,42.7171333008,23.2782697497
2222,2222,Ул. Уошбърн,42.7064449225,23.3469814247
0347,0347,Бул. Никола Петков,42.6696426912,23.2544014182
0220,0220,Бл. 437 Ж.к. Младост-4,42.6308780903,23.3749748625
1421,1421,Птицефермата,42.7254916942,23.3737158847
1059,1059,Метростанция Сливница,42.7274095326,23.2610559667
1662,1662,Края На С. Железница - По Желание,42.5289557298,23.3640912757
1898,1898,Ул. Ген. Никола Жеков,42.7336093401,23.3081482773
0028,0028,28-ми Дкц,42.6654402002,23.4073766474
1539,1539,Село Кокаляне,42.5768417213,23.4145069011
2534,2534,Ул. Липа,42.7801699748,23.5182053452
1908,1908,Пл. Славейков,42.6915399891,23.3248089536
0264,0264,Боянско Ханче,42.6466010439,23.266854407
0279,0279,Бул. Ал. Пушкин,42.6598299212,23.2655398258
0188,0188,Бл. 302 Ж.к. Надежда-3,42.7324703943,23.2876364491
6213,6213,Ул. Обиколна,42.6484762541,23.4041528161
2787,2787,Ул. Сочи,42.7093222239,23.1339059847
2169,2169,Ул. Сан Стефано,42.6965111191,23.3403735366
2332,2332,Централен Гробищен Парк,42.7113685833,23.3369542706
2633,2633,Ул. Радивоя,42.7821342324,23.4985254766
18,18,Младост 3,42.6465227346,23.3836311122
0358,0358,Бул. Пенчо Славейков,42.6873631155,23.3111019879
1808,1808,Ул. 6-ти Септември,42.6848593077,23.325287271
2809,2809,Ул. Хан Кубрат,42.7251527586,23.3041203497
2391,2391,Бизнес Парк София,42.6287369836,23.375038418
0293,0293,Бул. Вардар,42.6955186463,23.2880618194
1745,1745,Ул. Подпор.йордан Тодоров,42.6734928178,23.4051770553
1135,1135,Ндк,42.6858407185,23.3177226874
2620,2620,Ул. Крушата - По Желание,42.7929231369,23.3293373743
1796,1796,Ул. Демокрация,42.6840296537,23.1637058807
2279,2279,64-то Оу,42.6161384405,23.3374813888
315,315,Овча Купел,42.6836875166,23.269960787
1328,1328,Централна Гара,42.7106977871,23.31851149
1429,1429,Разклона За С. Герман,42.6361901617,23.4265386866
0350,0350,Бул. Никола Петков,42.6687198469,23.2551931383
1140,1140,Нестле-софия,42.7286896234,23.2583271177
2116,2116,Надлез Надежда,42.7140463819,23.308203172
0125,0125,Бл. 1 Ж.к. Горубляне,42.6350192792,23.4042320213
1184,1184,Околовръстен Път,42.6339921845,23.4432207395
0002,0002,102-ро Оу,42.7357571223,23.3052081311
0095,0095,Нц По Рехабилитация,42.6769425665,23.2674137615
0344,0344,Бул. Никола Вапцаров,42.6651119685,23.3185256052
0489,0489,Промишлена Зона,42.6579069914,23.4257359407
0800,0800,Ж.к. Дървеница,42.6513828901,23.3577650832
1225,1225,Ул. Патриарх Дамян,42.7333787116,23.301806559
1398,1398,Попова Махала,42.4939994821,23.3766526523
0175,0175,Бл. 25 Ж.к. Овча Купел-2,42.6886575891,23.2416094778
0197,0197,Бл. 350 Ж.к. Люлин-3,42.7258687345,23.2445954858
2610,2610,Бул. Д-р Петър Дертлиев,42.7102197217,23.2456891654
1152,1152,Ск Цска,42.6747834295,23.3768323921
1864,1864,Ул. Васил Петлешков,42.7056852238,23.3477989015
2560,2560,Кокалянско Ханче,42.5825202615,23.4241113944
2774,2774,Бл. 350 Ж.к. Люлин-3,42.7257583273,23.2437932552
0004,0004,Бл. 411 Ж.к. Младост-4,42.6379726154,23.3811728853
0690,0690,Ж.к. Слатина,42.6803141748,23.3729854684
1724,1724,Театър София,42.6957283548,23.3465194253
2012,2012,Ул. Кракра,42.6972395878,23.3378694622
0548,0548,Промишлена Зона Кривина,42.6698115376,23.46437142
0945,0945,Община Младост,42.6410672269,23.3837280832
0222,0222,Бл. 458 Ж.к. Надежда-4,42.7375357061,23.2984507032
1257,1257,Площад На Авиацията,42.6683357212,23.3672343552
1656,1656,Края С. Доброславци,42.8278095852,23.2848564805
2841,2841,Ул. Милениум,42.7109550266,23.1770833689
0289,0289,Бул. Братя Бъкстон,42.6745711411,23.2788088429
0170,0170,Метростанция Ал. Малинов,42.6473904298,23.376668466
1654,1654,Промишлена Зона,42.7294994034,23.3824311151
0975,0975,София Мед Ад,42.6596299765,23.4150995289
1069,1069,Мината,42.8321560035,23.3339078163
0631,0631,Ж.к. Красна Поляна,42.6911411051,23.2788592896
0535,0535,Детско Градче - По Желание,42.6151468023,23.4009808319
2485,2485,Софгеопроучване,42.743536889,23.3295152695
0200,0200,Бл. 350 Ж.к. Люлин-3,42.7249294681,23.2436570183
1639,1639,Края С. Бистрица - По Желание,42.5784174629,23.3595705226
1037,1037,Стадиона Герман,42.6178636628,23.417788932
0538,0538,Производствен К-с Москва,42.7289485716,23.324333484
0634,0634,Ж.к. Красна Поляна,42.6906872037,23.2783959778
1289,1289,Пл. Орлов Мост,42.6903054022,23.3363953509
2342,2342,Център По Хигиена,42.6826320503,23.3017168429
0453,0453,Гара Иваняне,42.7170478244,23.1700848924
0720,0720,Ну За Танцово Изкуство,42.6785250236,23.3653264178
1288,1288,Пл. Орлов Мост,42.689723894,23.3388643221
1291,1291,Пл. Пирдоп,42.6991804409,23.3612175832
2267,2267,Манастир Св. Никола - По Желание,42.5546034024,23.4282701474
6279,6279,Ул. Г. Измирлиев,42.663540383,23.2915276115
1325,1325,Хотел Хемус,42.6783525831,23.3206043785
1448,1448,Резиденция Бояна - По Желание,42.6488354644,23.269590403
1019,1019,Магазин Метро 2,42.74487215,23.2296374054
1151,1151,Ск Цска,42.6744216918,23.3752399352
1267,1267,Пл. Биримирци,42.7372947962,23.343395979
1887,1887,115-то Оу,42.7224838001,23.5310348939
0377,0377,Бул. Сливница,42.7061688732,23.3177415907
2353,2353,Нц По Радиобиология - По Желание,42.6323148842,23.3548198062
0569,0569,Балканкар Ад,42.6847484886,23.2753062995
2336,2336,Централни Хали,42.7000211046,23.3224143449
1675,1675,Начало С. Мрамор - По Желание,42.7794924751,23.2740037231
2085,2085,Ул. Опълченска,42.6985301313,23.3100195579
1713,1713,Моста На Сухата Река,42.6292959302,23.3333672307
1813,1813,Ул. 640,42.6810899273,23.2447817975
0898,0898,Кв. Сеславци,42.7833009602,23.5176592456
1117,1117,Начало С. Бистрица - По Желание,42.5902665659,23.3645942124
1806,1806,Ул. 6-ти Септември,42.6865367639,23.3242635664
0646,0646,Ж.к. Левски Г,42.7121113437,23.3880603925
0829,0829,Кв. Горна Баня,42.6757162882,23.2286050548
1240,1240,Центъра С. Кривина,42.6806515076,23.4640540947
1428,1428,Разклона За С. Герман,42.6077760333,23.4003122813
1884,1884,Ул. Възрожденска,42.7234770724,23.3007063219
0298,0298,Бул. Васил Левски,42.6987742352,23.335731487
0212,0212,Търговски Ц-р Овча Купел,42.6903763412,23.2537506557
1054,1054,Метростанция Люлин,42.7183758672,23.2570738646
0619,0619,Ж.к. Западен Парк,42.7014297392,23.2781802595
0065,0065,Бул. История Славянобългарска,42.7156983896,23.3239947407
1951,1951,Ул. Иван Йосифов,42.7137524599,23.304081087
1753,1753,Ул. Витиня,42.7084239801,23.36967204
1547,1547,Село Мало Бучино,42.6820281365,23.160273433
2449,2449,Ж.к. Магнолия - По Желание,42.6487481644,23.2426713845
6264,6264,Ул. Бистришко Шосе,42.6165357793,23.3650371531
2689,2689,Ж.к. Бокар,42.6597455412,23.2852840413
1204,1204,Опитна Станция,42.7448349538,23.3996264243
2533,2533,По Желание - Шолц България,42.7538350679,23.4937628507
0657,0657,Ж.к. Люлин-5,42.7164761894,23.2376659155
2153,2153,Ул. Радецки,42.6433561453,23.2811684482
2194,2194,Ул. Султан Тепе,42.6919777596,23.3513103621
0035,0035,Кв. Гара Искър,42.6625855186,23.4148009843
2110,2110,Ул. Нишава,42.6813636554,23.2897617151
0531,0531,Детски Дом Киноцентър,42.6424171137,23.289427756
1607,1607,Ск На Нса - По Желание,42.6439498765,23.3533139934
0620,0620,Ж.к. Западен Парк,42.7015947945,23.2765450203
2648,2648,Кино Арена Іі,42.6241114389,23.3747896918
0909,0909,Метростанция Витоша,42.6601957044,23.3180270375
0300,0300,Бул. Васил Левски,42.6879924544,23.329106942
0352,0352,Метростанция Овча Купел,42.6831089967,23.2702637869
1158,1158,Ул. Гюешево,42.6911747266,23.2959132205
2593,2593,Хермес Парк,42.6600138958,23.380843481
0679,0679,Ж.к. Обеля-2,42.7484342261,23.2765543275
2021,2021,Автостанция Изток,42.7032383276,23.3885278197
0316,0316,Бул. Д-р Г. М. Димитров,42.6599533095,23.3490032614
0052,0052,Автостанция Гео Милев,42.678057161,23.3704440516
1909,1909,Пл. Славейков,42.6913403426,23.3251215911
1344,1344,Пк Спартак,42.6754665515,23.3147282756
1121,1121,Начало С.долни Лозен,42.6079689653,23.4975166499
1774,1774,16-ти Дкц,42.7386789045,23.5065776896
1923,1923,Ул. Дамяница,42.6664978976,23.2495525999
6702,6702,Метростанция Горна Баня,42.6799601873,23.2405347824
0586,0586,Ж.к. Бъкстон,42.6586714718,23.2724820779
2045,2045,Ул. Милин Камък,42.6746302528,23.3290316835
0244,0244,Бл. 630 Ж.к. Люлин-6,42.7087051237,23.2518034062
1794,1794,Ул. 3,42.7130770879,23.4029256285
2843,2843,Ул. Перуника,42.7142655228,23.1738696743
311,311,Медицински Университет,42.6867740265,23.3102461602
1159,1159,Металика Оод,42.7381536888,23.5165756443
0205,0205,Мбал Токуда Болница,42.6675446343,23.325454861
1600,1600,Спи Проф. П. Мутафчиев,42.7077777429,23.4134686596
1757,1757,Толева Махала,42.7493152078,23.2214582762
2235,2235,Ул. Хемус,42.6835707941,23.3539577946
0332,0332,Бул. Ломско Шосе,42.7325775778,23.296909461
1103,1103,Моста Чавдар,42.7004898927,23.345479688
2439,2439,Моста На Р. Искър Кв. Враждебна,42.7102589176,23.419025475
0369,0369,Бул. Проф.цв. Лазаров,42.6734405446,23.3812072767
0194,0194,Бл. 327 Ж.к. Младост-3,42.640269183,23.3762220679
0329,0329,Бул. Ломско Шосе,42.7325547855,23.296596075
0303,0303,Метростанция Хаджи Димитър,42.7025108039,23.3523168883
0948,0948,Кметство Световрачане,42.7824450416,23.3877174673
1695,1695,Ж.к. Изток,42.6719978961,23.3638938994
2302,2302,Ханчето,42.7074014137,23.5196219938
2343,2343,Център По Хигиена,42.6818248153,23.3014845397
6432,6432,Тихия Кът - По Желание,42.6381764287,23.2197511221
2781,2781,Зоопарка,42.6576716182,23.3279823704
0401,0401,Бул. Черни Връх,42.6838114728,23.3220470809
1910,1910,Ул. Гинци,42.708302772,23.3610852534
1610,1610,Спортна Зала Хр. Ботев,42.6511100925,23.3422282089
2243,2243,Ул. Цар Борис Ііі,42.6543262797,23.4648824047
1634,1634,Хюндай България,42.7442370716,23.3181171404
2064,2064,Хит Маркет Люлин,42.7305652826,23.2657836365
1476,1476,Бл. 6 Ж.к. Сухата Река,42.7000462465,23.3688538328
0041,0041,66-то Соу,42.6724232954,23.2617527872
0026,0026,28-ми Дкц,42.6655477376,23.4068480467
0389,0389,Бул. Цар Борис Ііі,42.687415375,23.299716866
1442,1442,Хайдушки Чукар - По Желание,42.5968332333,23.3548744481
2335,2335,Централни Хали,42.6999140744,23.3237445376
0245,0245,Бл. 66 Ж.к. Младост-1,42.6505496986,23.3765659043
0805,0805,Кв. Бенковски,42.7449284357,23.3479108137
2747,2747,Начало Кв. Гниляне,42.8056367259,23.3785022533
0163,0163,Бл. 207 Ж.к. Обеля-2,42.7460911612,23.2702945635
2707,2707,Ул. Обзор,42.6759117756,23.2319868392
1498,1498,Самоковско Шосе,42.6355626089,23.4069236754
1536,1536,Село Житен,42.8182585009,23.2510456224
1972,1972,Ул. Калиманци,42.6908391745,23.3545018532
6215,6215,Бул. Ломско Шосе,42.7346711514,23.2917754599
1302,1302,Пл. Ручей,42.6783687724,23.2978044881
1031,1031,Ул. Монтевидео,42.6954127833,23.2525394769
0614,0614,Лту,42.6538412619,23.3597638807
1418,1418,Простор,42.6954379556,23.2445742804
205,205,Мария Луиза,42.714178392,23.313010441
1174,1174,Околовръстен Път,42.6230190711,23.4050448875
1427,1427,Разклона За С. Герман - По Желание,42.6075721592,23.4002927889
1647,1647,Начало С. Войнеговци - По Желание,42.7984624384,23.4218095559
2244,2244,Ул. Цар Борис Ііі,42.6541822309,23.46472763
2830,2830,Бул. Кн. Мария Луиза,42.7120558037,23.3173427079
0201,0201,Бл. 351б Ж.к. Младост-3,42.6378047157,23.38525564
0392,0392,Бул. Цар Борис Ііі,42.6874188087,23.3011679665
1350,1350,Моста На Симеоновска Река,42.6190277316,23.3336777193
0084,0084,Комплекс На Бан,42.6537443633,23.3886847069
0087,0087,База Газстрой - По Желание,42.7311663258,23.5726857666
0484,0484,Ул. Т. Каблешков,42.6621063136,23.2955746498
1554,1554,Село Негован,42.7687870877,23.4058673343
2338,2338,Център Кв. Абдовица,42.6644627776,23.4235219211
2750,2750,Ул. Ал. Стамболийски - По Желание,42.8205347483,23.3609571244
1245,1245,Параклис Св.ив.рилски,42.6617654207,23.2737066376
2206,2206,Ул. Т. Каблешков,42.6648403671,23.2871818779
0101,0101,Баня Панчарево,42.6026471417,23.4027779614
0438,0438,Края С. Мрамор,42.7887596816,23.2724797401
1048,1048,Метростанция Западен Парк,42.711068743,23.2694832391
1141,1141,Нестле-софия,42.7297646221,23.2568238252
2371,2371,Църквата Св. Георги,42.696666744,23.2239320847
0490,0490,Ул. Т. Каблешков,42.6621902986,23.2958133685
0109,0109,Бл. 33 Ж.к. Слатина,42.6879435652,23.375353141
0600,0600,Ж.к. Гоце Делчев,42.6600402095,23.2978617393
2415,2415,Ул. Младост - По Желание,42.7999763725,23.4008634777
2506,2506,Пътен Възел Калотина,42.7762581557,23.1802800592
0454,0454,Гара Иваняне,42.7170240059,23.1703914957
0982,0982,Края На Кв. Михайлово,42.685169423,23.1197500231
0701,0701,София Мел Ад,42.7069378578,23.3395517835
1387,1387,Подстанция Металургична - По Желание,42.7777662977,23.5234529618
1173,1173,Кв. Суходол,42.6953054673,23.2302032362
1463,1463,Р-т Александрия,42.6851744769,23.4023154403
1292,1292,Пл. Пирдоп,42.6987385965,23.3624555609
1114,1114,Надлез Надежда,42.7148619678,23.3118620435
1296,1296,Пл. Руски Паметник,42.6915548675,23.31115219
2615,2615,Спортна Зала Арена Армеец,42.6716193505,23.3716974498
2607,2607,Ул. Народен Герой,42.6743449357,23.2587520016
0100,0100,Банята Кв. Гниляне,42.8002065327,23.3802111642
2427,2427,Автостанция Изток,42.7042528819,23.3864818152
1929,1929,Ул. Димитър Пешев,42.6403065086,23.4129997222
2010,2010,Ул. Костенски Водопад,42.6663080583,23.3003317067
2152,2152,Ул. Радецки,42.6429988175,23.2823380906
1835,1835,Ул. Байкал,42.648291862,23.264255602
6178,6178,Ул. Кап. Д. Списаревски,42.672803291,23.3880891064
0827,0827,Кв. Гниляне,42.808962668,23.376141153
1626,1626,Старата Чешма - По Желание,42.8121461938,23.3774940882
2319,2319,Хмс,42.6555973161,23.3822628466
2401,2401,Ул.васил Левски,42.6005890345,23.4961603279
0651,0651,Ж.к. Люлин-3,42.7217804755,23.2413802239
0550,0550,Стинд,42.7312733122,23.3259442451
1338,1338,Площада Кв. Враждебна,42.7132463334,23.4183981569
0496,0496,Горско Стопанство,42.7709354848,23.4392016848
1202,1202,Опитна Станция,42.6219292755,23.4511205125
0322,0322,Бул. Петър Дертлиев,42.7100352065,23.2444241224
0905,0905,Кв. Требич - По Желание,42.7751920087,23.3153851117
2597,2597,Ж.к. Водолей,42.6401150802,23.3118856282
1791,1791,Ул. 10,42.6342208022,23.3042102887
1805,1805,Ул. 507,42.6916193021,23.3821670167
2256,2256,Ул. Цветна Градина,42.6338868405,23.4091544149
3,3,Западен Парк,42.7112133209,23.2703919908
305,305,Хаджи Димитър,42.7027053525,23.3526458924
0477,0477,Гара София Север,42.7264584055,23.3153105161
1372,1372,По Желание,42.5549751326,23.3644483453
1749,1749,Тец Изток,42.6509815508,23.413900533
0758,0758,Умбалсм Пирогов,42.690194846,23.3066258278
1823,1823,Ул. Александър Жендов,42.6809954912,23.3567782636
2423,2423,Ул. Феликс Каниц,42.6845987344,23.2975780647
2175,2175,Ул. Синята Скала - По Желание,42.6557723479,23.232325941
1604,1604,Нпмг Акад. Любомир Чакалов,42.668603978,23.3289524665
1985,1985,Ул. Кап. Д. Списаревски,42.6682672325,23.3850966278
1316,1316,Пл. Сточна Гара,42.7042800337,23.3344896443
1197,1197,Умбал Св. Анна-ухо,42.6599383382,23.3740852483
0275,0275,Бул. Акад. Ив. Гешов,42.6792507847,23.3011812732
2079,2079,Ул. Опълченска,42.7125717571,23.3162713308
6454,6454,Метростанция Сердика,42.6979426098,23.3202624982
1262,1262,Петте Могили,42.7331525581,23.3901320502
2777,2777,Мбал Токуда Болница,42.6671614843,23.3267210279
0098,0098,Нц По Рехабилитация,42.6776352147,23.2684074644
2738,2738,В.з. Подгумер - По Желание,42.8096048624,23.4046577161
2803,2803,Жп Гара Верила,42.6414316074,23.5209769212
2835,2835,Разклона За С. Герман,42.6220420259,23.419588151
0423,0423,Кв. Малинова Долина - По Желание,42.637951551,23.35332477
0588,0588,Ж.к. Бъкстон,42.6584590425,23.2728108576
2432,2432,Бул. Брюксел,42.6639976738,23.3894705135
2318,2318,Хмс,42.6552163338,23.3814390887
2409,2409,Хипермаркет Практикер,42.6411727552,23.4098766729
0524,0524,Детски Дом,42.6536899448,23.3467309494
0130,0130,Бл. 11 Ж.к. Левски-в,42.7097511142,23.3843710447
2272,2272,90-то Соу,42.7267718704,23.2527706073
2724,2724,Промишлена Зона Ж.к. Дружба 1,42.6711071755,23.3822299403
1879,1879,Ул. Вишнева,42.6784979682,23.3336892059
1497,1497,Самоковско Шосе,42.6355609238,23.4070937678
0658,0658,Хотел Амбасадор,42.6387737264,23.3342536394
2760,2760,Местност Ярема,42.4998178805,23.3331629566
0115,0115,Бетонов Възел,42.7363941326,23.3248383235
2047,2047,Ул. Космонавт - По Желание,42.7128066645,23.1664118284
0018,0018,24-ти Дкц,42.7369919315,23.301040336
1090,1090,Моста За Резиденция Врана,42.6364860242,23.4210727946
0546,0546,Бул. Рожен,42.7311348899,23.314032248
0090,0090,Технотест,42.6772528234,23.3979737035
0844,0844,Кв. Изгрев,42.7153871595,23.1725785437
1380,1380,Начало Кв. Иваняне - По Желание,42.7097371997,23.185403146
1897,1897,Ул. Ген. Никола Генев,42.718991299,23.262762155
0003,0003,Бл. 411 Ж.к. Младост-4,42.6369660032,23.3803745906
0766,0766,Институт По Ортопедия,42.6727161916,23.244604844
1785,1785,Трънска Махала,42.6682609026,23.4246709055
1714,1714,Моста На Сухата Река,42.6296224322,23.3333296571
1422,1422,Първа Градска Болница,42.6889184581,23.3231278715
0014,0014,163-то Оу,42.6453680144,23.404928335
0449,0449,Гара Волуяк,42.7571179705,23.244468048
1764,1764,Пгхмбт Проф. П. Райков,42.7324661401,23.3121003399
2569,2569,Бл. 13 Ж.к. Западен Парк,42.701756849,23.2817277793
0970,0970,Корабчето,42.6424547405,23.4031161117
1023,1023,Махала Джюлници,42.7664648843,23.243650502
1525,1525,Село Долни Богров,42.6972324312,23.4961565045
2135,2135,Ул. Проф. Д. Атанасов,42.6754880734,23.2895692281
2527,2527,Кв. Република-2,42.7442151413,23.2310447976
1874,1874,Ул. Витиня,42.7005885499,23.3718778821
2109,2109,Ул. Нишава,42.6813079062,23.2897311856
1950,1950,Ул. Иван Йосифов,42.7126407338,23.3031649363
2502,2502,Ул. Хан Тервел Кв. Максим Горки,42.7710019731,23.1887760271
1247,1247,Парк Св.св.петър И Павел,42.6966811832,23.2962388784
0465,0465,Гара Пионер,42.6667094736,23.3381299781
1203,1203,Опитна Станция,42.7450085284,23.3995836579
0581,0581,Кв. Манастирски Ливади-запад,42.66199611,23.2840412814
2686,2686,Околовръстен Път,42.7580378103,23.268859361
6690,6690,Ул. Лешникова Гора - Временна,42.6308315747,23.3060510263
2746,2746,Складова База Чепинско Шосе,42.7314228601,23.3864873821
6708,6708,Метростанция Бели Дунав,42.7347778954,23.2937054934
0015,0015,163-то Оу,42.6452239413,23.4047836782
1801,1801,Ул. Иван Андонов,42.6573293012,23.3101721834
0074,0074,Бул. Пейо Яворов,42.6823310345,23.3488875357
1663,1663,Начало С. Желява,42.7381754294,23.6070914669
1102,1102,Моста Чавдар,42.7004677543,23.3460460351
1303,1303,Пл. Ручей,42.67827217,23.2983740458
1856,1856,Ул. Бяло Море,42.6992677015,23.3397257208
0480,0480,Гара Горна Баня,42.6736015437,23.2403401968
2387,2387,Ул. Обрадовски Път,42.7476024153,23.3505086079
1420,1420,Птицефермата,42.7256349298,23.3741979164
2430,2430,Ж.к. Левски Г,42.7121711831,23.380224591
2728,2728,Езерото - Село Казичене,42.6580209654,23.4547380615
4,4,Вардар,42.7058746604,23.2848944326
0817,0817,Кв. Вердикал,42.7196379281,23.1308840225
1176,1176,Околовръстен Път,42.6427898982,23.312703243
0573,0573,Местност Елите,42.606879729,23.1763732708
0011,0011,14-ти Дкц,42.6788389024,23.3105412463
0379,0379,Женски Пазар,42.7003893134,23.3177818015
1235,1235,Център Кв. Ботунец,42.7395805152,23.5113519269
2357,2357,Ул. Проф. Ал. Станишев,42.7239134976,23.2591833437
1566,1566,Пгсс,42.6801165046,23.2547653231
0733,0733,Ул. 44 - По Желание,42.6072013529,23.3676849509
2184,2184,Ул. Стара Планина,42.7295029739,23.5647654016
6156,6156,Бул. Луи Пастьор,42.7134470388,23.2662050949
6331,6331,Ул. Професор Фритьоф Нансен,42.6862258154,23.3211207026
0865,0865,Ул. Бистришко Шосе,42.6242428646,23.3564923697
0473,0473,Гара Подуяне,42.6968608308,23.3556173256
0903,0903,Кв. Славовци - По Желание,42.7920394281,23.3350489236
2413,2413,Начало Долни Лозен,42.6080662309,23.4977257012
2827,2827,Метростанция Су Св. Климент Охридски,42.6920156277,23.3335309594
0174,0174,Бл. 25 Ж.к. Овча Купел-2,42.6888374858,23.2428592138
1482,1482,Ул. Детелина,42.7182602,23.2276186073
1649,1649,Махала Батареята,42.7092399774,23.4244204492
0949,0949,Кметство Световрачане,42.7823307861,23.3876530962
0227,0227,Бл. 505 Ж.к. Овча Купел-1,42.6867548021,23.2554565196
2041,2041,Ул. Макгахан,42.7030389974,23.3512703872
0875,0875,Кв. Овча Купел,42.6715774605,23.2720469131
0904,0904,Кв. Славовци - По Желание,42.7917656212,23.334533823
1965,1965,Ул. Искър,42.701691331,23.3339129983
2820,2820,Паметника С. Яна,42.7279115532,23.5599621976
1925,1925,Ул. Димитър Петков,42.7000446825,23.2999472582
1926,1926,Ул. Димитър Петков,42.6999920853,23.3005844734
1425,1425,Начало Кв. Михайлово - По Желание,42.704138861,23.1274299448
2725,2725,Разклона За Кв. Видните,42.6568234637,23.4563540492
2066,2066,Ул. Обиколна,42.6483282215,23.4038022011
0917,0917,Местност Манилов Дол,42.6989502057,23.1958256775
1811,1811,Ул. 61,42.7103404197,23.4028358075
0770,0770,Институт По Черна Металургия - По Желание,42.7476563353,23.5089145316
2186,2186,Ул. Стара Планина,42.8509606171,23.26691561
2274,2274,153-та Гимназия,42.7371429138,23.3101412005
1057,1057,Метростанция Люлин,42.7185072445,23.2572873813
1268,1268,Пл. Биримирци,42.7377725999,23.3436636939
0826,0826,Гара Искър,42.6633442384,23.4158495501
0853,0853,Автостанция Княжево,42.6586225128,23.2403690222
0871,0871,Кв. Обеля,42.742703098,23.265678681
1792,1792,Ул. 2,42.7429710132,23.272973079
209,209,Ндк,42.6878824949,23.318974337
0815,0815,Кв. Бусманци,42.6759496001,23.433490489
1246,1246,Параклис Св.ив.рилски,42.6616592332,23.2735408869
1608,1608,Ск На Нса - По Желание,42.6440642779,23.3534336727
1351,1351,Ул. Брезите,42.645613574,23.273429647
2404,2404,Моста На Р.блазна Бара,42.5975262828,23.50218533
0241,0241,Бл. 620 Ж.к. Люлин-6,42.7088065934,23.2473955569
0745,0745,Софарма Ад,42.7354959721,23.3175130581
1725,1725,Театър София,42.6968005603,23.3472385009
2177,2177,Ул. Снежник,42.7219028429,23.331125375
1963,1963,Ул. Искър,42.7001393832,23.3295850972
0879,0879,Кв. Овча Купел,42.6716024488,23.2725298167
1220,1220,Ул. Зорница,42.763856572,23.2439092429
0908,0908,Пътен Възел Филиповци,42.7183819,23.2360201954
0723,0723,Ул. Поручик Хр.топракчиев,42.6686281917,23.4124713319
2602,2602,Ул. Искър Божурище,42.7675652328,23.1944134762
2300,2300,Ханчето - По Желание,42.6267902211,23.3586092952
2377,2377,Шумако - По Желание,42.6014652366,23.3500617058
1858,1858,Ул. Бяло Море,42.6990466737,23.339166256
0549,0549,Стинд,42.731341779,23.3261104768
0893,0893,Кв. Павлово,42.6675550428,23.2661215304
1208,1208,Оранжерията - По Желание,42.8016916431,23.3374297771
1538,1538,Село Казичене,42.662352554,23.4646395403
2032,2032,Ул. Лиляче,42.6875490913,23.2669424359
1039,1039,Стадиона Герман,42.6175087127,23.4174328648
1807,1807,Ул. 6-ти Септември,42.6843211241,23.3259287292
2167,2167,Ул. Луи Пастьор,42.7203056627,23.2737131225
6347,6347,Ул. Ученическа,42.7124440783,23.1517236249
0283,0283,Бул. Ал. Стамболийски,42.6980153846,23.3094368313
1551,1551,Село Мрамор,42.7858319173,23.2736028773
2115,2115,Надлез Надежда,42.7137431772,23.3058254477
0833,0833,Кв. Д. Миленков,42.6567422179,23.4279039404
0479,0479,Гара Яна,42.7268904406,23.5552560814
0964,0964,Ул. Странджа,42.7099334464,23.1404799806
1123,1123,Ул. Минзухар,42.8152685692,23.2531016331
2780,2780,Метростанция Витоша,42.6575357789,23.3162933053
0076,0076,Анева Чешма - По Желание,42.5398805413,23.3646712811
1004,1004,Летище Доброславци - По Желание,42.8182302231,23.313974484
2337,2337,Централни Хали,42.700385725,23.3224679075
0977,0977,Ул. Сребърна,42.6594426214,23.3248680497
2718,2718,Вилите,42.6533879012,23.1979308346
2748,2748,Ул. Ал. Стамболийски,42.8203793023,23.361138716
0589,0589,Ж.к. Бъкстон,42.6751779462,23.2787414637
0117,0117,Биомет Еоод - По Желание,42.8011428515,23.264177815
2474,2474,Нова Телевизия,42.6795217551,23.4000461625
1454,1454,Разклона За Летището,42.6716352357,23.3937016553
2189,2189,Ул. Стоил Войвода,42.6888884608,23.3627831798
2039,2039,Ул. Люботрън,42.6685007713,23.3192630777
6431,6431,Тихия Кът - По Желание,42.6381240297,23.2197371902
1277,1277,Пл. Лъвов Мост,42.7045003218,23.3237772371
0278,0278,Бул. Ал. Пушкин,42.6622464277,23.265364612
1124,1124,Начало Кв. Гниляне,42.805215609,23.378422279
2298,2298,Търговски К-с Надежда,42.7264558106,23.3027271891
2287,2287,160 -то Оу,42.7619568979,23.4306449259
1543,1543,Село Кубратово,42.7730638558,23.362788619
0706,0706,Бул. Вардар,42.702222958,23.286005291
0475,0475,Гара Руднична - По Желание,42.7678625377,23.4930744384
0602,0602,Ж.к. Дианабад,42.6570707942,23.3362852833
2570,2570,Бл. 13 Ж.к. Западен Парк,42.7019610484,23.2817499589
1727,1727,Театър София,42.6962274536,23.3459456164
2285,2285,64-то Оу,42.616373318,23.3374733886
0983,0983,Ул. Врачанска,42.7719640559,23.4008040864
1655,1655,Промишлена Зона,42.7294983823,23.3822638843
2757,2757,Ул. Димитър Ашов,42.6563808475,23.4653772589
0079,0079,Ап Земляне,42.6831274041,23.2778269066
0385,0385,Бул. Христо Ботев,42.705021683,23.3186491974
0068,0068,Рц По Протезиране,42.6767417011,23.2496416744
0452,0452,Гара Захарна Фабрика,42.7124609371,23.2913431283
1131,1131,Начало С. Мърчаево,42.6111893847,23.1795952111
0832,0832,Кв. Градоман,42.6856259775,23.1387763026
0991,0991,Кулинарен К-т Пейфил,42.6391303198,23.3978171157
2411,2411,Ул. Пролет,42.630922661,23.1940162586
1838,1838,Ул. Бели Дунав,42.7331967535,23.2883982457
0804,0804,Ж.к. Банишора,42.7058326971,23.3073524981
1081,1081,Моста На Селска Река,42.7700027252,23.2418174928
2627,2627,Гробищен Парк Кремиковци - По Желание,42.7803048721,23.5121614303
1293,1293,Пл. Пирдоп,42.6987787862,23.3628900594
1683,1683,Начало Кв. Требич - По Желание,42.7713479659,23.3156663553
2763,2763,Бул. Черни Връх,42.6584101865,23.314694193
2693,2693,Село Долни Лозен,42.5995596735,23.4999129605
1997,1997,Пл. Гарибалди,42.6943369142,23.3224352509
0993,0993,Културен Дом,42.7609779692,23.5627154588
2234,2234,Ул. Хемус,42.683528555,23.3541423898
1544,1544,Село Кубратово,42.773524266,23.3629501589
2133,2133,Ул. Поручик Гр. Загорски,42.718410739,23.2398551102
0536,0536,Детско Градче - По Желание,42.6153691433,23.4009826422
1005,1005,Летище Доброславци,42.813362143,23.2794379842
1680,1680,Начало С. Подгумер - По Желание,42.7975957707,23.3978894125
1726,1726,Театър София,42.6962640018,23.3460380941
2384,2384,Яз. Мало Бучино,42.6970486163,23.191254729
2631,2631,Ул. Вишновска - По Желание,42.7926224631,23.3105881576
1378,1378,По Желание,42.7115242641,23.1919338867
1340,1340,Площада С. Волуяк,42.7734273442,23.2428270131
1871,1871,Ул. Витиня,42.7054443052,23.3691680099
2450,2450,Ж.к. Магнолия - По Желание,42.6488057471,23.2427146953
0051,0051,Автостанция Банкя,42.7082360165,23.1522248065
0190,0190,Техно Парк София,42.6489096283,23.4091701161
0756,0756,Инжстрой София Ад,42.7178800909,23.2917841867
1580,1580,Бул. Владимир Вазов,42.7058659842,23.4004625843
2677,2677,Бл. 245 Ж.к. Младост 2,42.6470418613,23.368046055
0499,0499,Горублянско Ханче,42.6387736971,23.4121933191
0243,0243,Бл. 630 Ж.к. Люлин-6,42.7085541572,23.2519124251
0732,0732,Заслон Синаница,42.5583646428,23.4499873486
1129,1129,Начало С. Кътина,42.8415590446,23.3234038143
1459,1459,Разклона За Кв.симеоново,42.6324626054,23.3344682684
2013,2013,Вту Т. Каблешков,42.6793871094,23.3787170626
0697,0697,Ж.п.прелез,42.7340316608,23.3434254484
0801,0801,Ж.к. Дървеница,42.651345429,23.3561910183
0622,0622,Гара Захарна Фабрика,42.7117417902,23.2890107668
0240,0240,Бл. 603 Ж.к. Връбница-2,42.7392961919,23.2945138893
2246,2246,Ул. Бор - По Желание,42.7062803853,23.1529407211
0411,0411,Бл. 4 Ж.к. Сухата Река,42.699348966,23.3657708964
0215,0215,Бл. 43 Ж.к. Горубляне,42.635411486,23.4011587573
2165,2165,Ул. Рояк,42.7123249543,23.3436760073
6738,6738,Ул.маестро Атанасов - Временна,42.6255891525,23.3117940139
0617,0617,Лту,42.653137873,23.3596838582
2503,2503,Ул. Хан Тервел Кв. Максим Горки,42.7700177331,23.1901703812
0343,0343,Бул. Никола Вапцаров,42.6653655101,23.3175911675
2107,2107,Метростанция Хаджи Димитър,42.7034212002,23.3545546678
2048,2048,Ул. Космонавт - По Желание,42.7124892627,23.1657096372
2548,2548,Автобаза Искър,42.677817047,23.3895601551
0545,0545,Промишлена Зона Кривина,42.6697522552,23.4642353518
1967,1967,Кв. Киноцентър,42.6486988342,23.2947709037
2056,2056,Ул. Народно Хоро,42.6805643052,23.2691891557
0372,0372,Бул. Христофор Колумб,42.66055212,23.3920038613
2688,2688,Ж.к. Бокар,42.6609130276,23.2860666864
0717,0717,Котлостроене Ад,42.7185781048,23.3157144083
1070,1070,Митница Суходол,42.6968581267,23.2130798783
2075,2075,Ул. Одрин,42.6994415096,23.3038901622
2269,2269,Калфин Дол,42.5954175541,23.3595679006
6619,6619,Природен Парк Витоша,42.5075755941,23.3320114159
0591,0591,Ж.к. Бъкстон,42.6591292236,23.272698355
0611,0611,Ж.к. Дружба-2,42.6400941311,23.4162396199
0221,0221,Бл. 458 Ж.к. Надежда-4,42.7376138062,23.2967305763
0261,0261,Боянска Църква,42.6442206703,23.266040742
2139,2139,Ул. Пробуда,42.7376484724,23.3272426237
2060,2060,Ул. Н. Коперник,42.6793030082,23.3607801911
0202,0202,Бл. 351б Ж.к. Младост-3,42.6372943402,23.3846498204
0404,0404,Булавто,42.7455366413,23.3302410919
2521,2521,Екобулсорт - По Желание,42.7300119469,23.2248529368
0267,0267,Боянско Ханче,42.6465714472,23.26712149
309,309,Патриарх Евтимий,42.6881178162,23.3273253711
2036,2036,Ул. Луи Айер,42.6641069606,23.3026248689
1453,1453,Разклона За Летището,42.6717933728,23.3930708752
0942,0942,Читалище Просвета,42.6962708825,23.2267709988
1047,1047,Метростанция Вардар,42.7067373636,23.2846451868
0257,0257,Бл. 98 Ж.к. Дружба-1,42.6678051039,23.386293309
0561,0561,Ел. Кантон,42.7623805115,23.399569195
1684,1684,Начало Кв. Требич - По Желание,42.77169693,23.3158484826
6436,6436,Пл. Княз Александър І,42.6964817642,23.3262294455
0656,0656,Ж.к. Люлин-5,42.7133704414,23.2379617847
2108,2108,Метростанция Хаджи Димитър,42.7029804657,23.352230732
2182,2182,Ул. Ст. Доспевски,42.7102590625,23.3861860439
1799,1799,Културен Център Люлин,42.7182185511,23.2467866537
2393,2393,Бл. 472 Ж.к. Младост-4,42.6271185795,23.3786204752
2531,2531,Разклона За Кв. Сеславци,42.7806079889,23.5157277009
0276,0276,Бул. Ал. Пушкин,42.6629731849,23.2657003892
1466,1466,Резиденция Врана,42.6346184673,23.4358503708
1877,1877,Яз. Суходол,42.7058329853,23.2302716418
1322,1322,Хотел Хемус,42.6775390188,23.3217564398
0393,0393,Бул. Цар Борис Ііі,42.6861650595,23.3001539339
2784,2784,Мбал Вита,42.656838,23.321093
0307,0307,Бул. Възкресение,42.694464901,23.2920144525
1509,1509,Селимица,42.6198841392,23.1890454833
0971,0971,Корабчето,42.6419229621,23.4051552321
2394,2394,Бл. 480 Ж.к. Младост-4,42.6265878491,23.3816259537
6644,6644,Кв. Карпузица,42.6681862417,23.2415066999
2121,2121,Ул. Поп Богомил,42.703440171,23.3289846087
1614,1614,Стадион Г. Аспарухов,42.7032035032,23.3642393664
1982,1982,Ул. Кап. В. Данаджиев,42.7145400738,23.2447016244
1624,1624,В.з. Китката - По Желание,42.5720619684,23.4323975029
2717,2717,По Желание,42.6573050868,23.2039328485
1229,1229,Яз. Пасарел - По Желание,42.5491868795,23.4801961768
2418,2418,Бул. Царица Йоана,42.7113806013,23.2718940301
2144,2144,Ул. Просвета,42.7257554202,23.3172294141
0291,0291,Бул. България,42.6712431011,23.295166215
0860,0860,Южен Парк,42.6601431849,23.3055568728
1348,1348,Начало Кв Д. Миленков,42.6598239163,23.423475256
1273,1273,Пл. Журналист,42.6810139077,23.3320583472
0089,0089,Технотест,42.6771990058,23.3991630286
0481,0481,Ул. Синчец,42.7817872074,23.3836999829
1953,1953,Ул. Иван Кралича,42.7368040365,23.3392056575
2248,2248,Ул. Цар Симеон,42.7052783742,23.2978046937
0559,0559,Езерото,42.6617381744,23.3968305544
1213,1213,Разклона За Д.богров,42.7060980322,23.489572877
2281,2281,177-мо Оу,42.7827205664,23.387918682
1120,1120,Начало Кв. Градоман,42.6893883371,23.1425950224
2141,2141,Ул. Промишлена,42.6897129822,23.2487052228
0639,0639,Ж.к. Красно Село,42.6787881682,23.2851358468
2002,2002,Ул. Козлодуй,42.7074751437,23.3231911286
0686,0686,Ж.к. Свобода,42.7387827263,23.3032030493
1591,1591,Скиорката - По Желание,42.6497121329,23.2613894423
1934,1934,Ул. Добротич,42.6926983018,23.2808299762
0406,0406,Бул. Панчо Владигеров,42.7231294068,23.2592157075
0096,0096,Нц По Рехабилитация,42.676541488,23.2680812619
0892,0892,Кв. Павлово,42.6678969625,23.2660043595
0922,0922,Читалище Пенчо П. Славейков 1921,42.6704224441,23.3203010413
0661,0661,Ж.к. Младост-1,42.6511896473,23.3679098591
1829,1829,Ул. Атанас Узунов,42.6893953042,23.3643328306
0504,0504,Град Бухово,42.7645223058,23.5689408078
1847,1847,Ул. Боян Магесник,42.6940549719,23.3665368805
0492,0492,Републикански Невродиспансер,42.6669723826,23.36519964
0036,0036,Кв. Гара Искър,42.6623105664,23.4149587569
0321,0321,Бул. Петър Дертлиев,42.7101682717,23.2454664016
0866,0866,Кв. Манастирски Ливади,42.6567961405,23.2844334494
1294,1294,Пл. Пирдоп,42.6991962386,23.3607397026
0516,0516,Депо Искър,42.6544092887,23.4110305757
2497,2497,По Желание (вердикал),42.7218982759,23.1292094081
1862,1862,Ул. Васил Кънчев,42.7050050682,23.3576060118
0151,0151,Бл. 20 Ж.к. Свобода,42.7397427946,23.3052838231
0868,0868,Кв. Манастирски Ливади,42.6569501722,23.2849304262
2664,2664,Бул. Рожен,42.7311550095,23.3142439061
2211,2211,Ул. Т. Каблешков,42.6657572117,23.2883599039
0823,0823,Кв. Враждебна,42.7124578458,23.412232378
1790,1790,Ул. 10,42.6345696745,23.3037361302
0097,0097,Нц По Рехабилитация,42.676934979,23.268028658
0281,0281,Бул. Ал. Стамболийски,42.7027732085,23.2858169905
1734,1734,Терснаб,42.7355844691,23.3290687597
6277,6277,Ул. Костенски Водопад,42.6611843189,23.2956139564
2220,2220,Ул. Търново,42.722477264,23.2620128426
2751,2751,Ул. Ал. Стамболийски - По Желание,42.8205852874,23.3607067825
2221,2221,Ул. Търново,42.7229272808,23.2613682531
0142,0142,Бл. 155 Ж.к. Дружба-1,42.6580432295,23.3974223528
0796,0796,Католически Гробищен Парк,42.715905427,23.3399336091
1629,1629,Бул. Кръстьо Пастухов,42.6684224743,23.4017231103
1782,1782,Бул. Панчо Владигеров,42.7240610561,23.2577961862
6641,6641,Кметство Казичене,42.659555355,23.4648205473
1491,1491,Румънско Посолство,42.6851662629,23.3512358984
23,23,Летище София,42.6880611321,23.4161254887
6642,6642,Кметство Казичене,42.6600198294,23.4648830698
2470,2470,Толумска Махала - По Желание,42.5981056174,23.1622331914
2537,2537,Ул. Стара Планина,42.7871904121,23.5202927723
2839,2839,Резиденшъл Парк София,42.6231702672,23.3724737176
1875,1875,Ул. Вихрен,42.6653098128,23.2753058454
1172,1172,Околовръстен Път,42.6319553391,23.3335022219
1564,1564,Село Чепинци,42.7575536333,23.4257259701
0894,0894,Кв. Република,42.7375636349,23.242963733
0888,0888,Кв. Павлово,42.6678300099,23.2654249784
2325,2325,Хотел Плиска,42.6766575967,23.3598815781
0789,0789,Кантона - По Желание,42.7217776543,23.1905818401
1219,1219,Оц Овча Купел,42.6880881023,23.2631976791
0340,0340,Бул. Ген.н.столетов,42.7112164546,23.3094832239
0864,0864,Ул. Бистришко Шосе,42.6246707837,23.3570480613
1065,1065,Ул. 503,42.6934152734,23.3793558263
0793,0793,Кантона,42.7083189869,23.4326734393
2057,2057,Ул. Народно Хоро,42.6809094944,23.2695158205
2150,2150,Ул. Равнец - По Желание,42.7895490955,23.3306590018
0274,0274,Бул. Акад. Ив. Гешов,42.6865510062,23.2996484297
0650,0650,Ж.к. Люлин-1 2,42.7295874323,23.2470392165
0299,0299,Бул. Васил Левски,42.688255303,23.3287063109
1227,1227,Кв. Факултета,42.6981631091,23.2721648693
1412,1412,Пречиствателна Станция,42.7538748799,23.3525968835
2136,2136,Бул. Гоце Делчев,42.6754286125,23.2879679183
0129,0129,Бл. 108 Ж.к. Дружба-1,42.6674543053,23.3919253265
1503,1503,Сба - По Желание,42.6195732981,23.4033890125
0578,0578,Бул. Христофор Колумб,42.6629062999,23.3915322513
0795,0795,Кариерата - По Желание,42.7703420117,23.538736085
2511,2511,По Желание,42.688276241,23.4518127369
1891,1891,Ул. Ген. Ас. Николов,42.7213000159,23.2644400539
2263,2263,Ул. Юрий Гагарин,42.7326995885,23.554002202
2326,2326,Хотел Плиска,42.6750221405,23.3591537954
1479,1479,Моста С. Долни Богров,42.703861819,23.4928015389
1868,1868,Ул. Видини Кули,42.7059271061,23.3448881026
0987,0987,Мк Кремиковци,42.7433333427,23.5185946434
1376,1376,Разклона Кв. Кремиковци,42.7370953629,23.4696301254
0075,0075,Анева Чешма - По Желание,42.5403099121,23.3649458541
0439,0439,Края С. Мрамор,42.7885251162,23.2727354902
6439,6439,Пл. Св. Александър Невски,42.6955717189,23.3340680313
2510,2510,По Желание,42.6880773789,23.4517657582
0635,0635,Ж.к. Красна Поляна,42.6907343137,23.2780600006
2532,2532,По Желание - Шолц България,42.7532381965,23.4945962358
1983,1983,Ул. Кап. Д. Списаревски,42.6732934243,23.3862884477
0861,0861,Южен Парк,42.6589151872,23.3062970983
1579,1579,Разклона За Кв. Враждебна,42.7092620015,23.3971129353
1931,1931,Ул. Добротич,42.6934874706,23.2822328799
6460,6460,Метростанция К. Величков,42.7021424574,23.297312971
0056,0056,Автостанция Изток,42.7035562591,23.386842821
1248,1248,Парк Св.св.петър И Павел,42.6963437056,23.2960343697
1559,1559,Село Световрачане,42.7830461409,23.3909188529
2009,2009,Ул. Костенски Водопад,42.6656802179,23.3020004896
0564,0564,Балканкар Ад,42.6850800751,23.2750254242
1122,1122,Ул. Минзухар,42.8150636711,23.2531605553
1156,1156,Ул. Гюешево,42.6925265834,23.2959384788
2433,2433,Бул. Брюксел,42.6636792899,23.3891140219
2251,2251,Ул. Цар Симеон,42.7051622989,23.2982320212
2846,2846,Метростанция Горна Баня,42.6800549736,23.2403848563
2845,2845,Ж.к. Гоце Делчев,42.660430966,23.2972057936
0368,0368,Бул. Проф.цв. Лазаров,42.6736573216,23.382454483
1457,1457,Разклона За Кв.драгалевци,42.6409649018,23.3135344558
0269,0269,Бул. Акад. Ив. Гешов,42.6800415219,23.302507293
0776,0776,Ул. Калояново,42.6703513531,23.257868244
1824,1824,Ул. Александър Жендов,42.6806682997,23.357150835
0830,0830,Кв. Горубляне,42.6284362674,23.4079200453
0906,0906,Кв. Требич - По Желание,42.7753651104,23.3155288435
1653,1653,Промишлена Зона Горни Лозен,42.6136448159,23.461336815
2239,2239,Ул. Христо Ботев,42.7607880893,23.2022033099
2453,2453,Рвд,42.6843537975,23.40852216
0309,0309,Бул. Гоце Делчев,42.6659216931,23.3019686546
1181,1181,Околовръстен Път,42.6959807525,23.2296322837
0574,0574,Енергопроект,42.6731594309,23.324050638
2129,2129,Ул. Поп Груйо,42.702342193,23.382304522
1569,1569,Семинарията,42.6747934415,23.3338172859
2076,2076,Ул. Одрин,42.6994233243,23.3042882419
1478,1478,Моста С. Долни Богров,42.7041061078,23.4926014089
6440,6440,Пл. Св. Александър Невски,42.6957308935,23.3339355833
1688,1688,Моста На Лесновска Река,42.7327469407,23.4661504569
2093,2093,Ул. Орион,42.7170883121,23.2795121308
2584,2584,Ул. Мюнхен,42.6602647018,23.410536791
6429,6429,Бистришко Шосе,42.6165647257,23.3646382185
0645,0645,Ж.к. Лагера,42.684925183,23.2964340782
1035,1035,Умбал Александровска,42.6858642612,23.3063075025
1846,1846,Ул. Боян Магесник,42.6941013852,23.366295045
1215,1215,Разклона За Волуяк,42.7750559433,23.2501969022
6614,6614,Ул. Презвитер Козма,42.6751493321,23.3222703092
0852,0852,Кв. Княжево,42.6589462122,23.2419220112
0268,0268,Бул. Акад. Ив. Гешов,42.6794921396,23.3037295677
2819,2819,Паметника С. Яна,42.7279616836,23.560272849
0073,0073,Бул. Пейо Яворов,42.6830906194,23.3483218687
2149,2149,Ул. Проф.и.георгов,42.724717615,23.3222107843
1362,1362,По Желание,42.5198959766,23.3635880116
2125,2125,Ж.к. Левски-в,42.7098284541,23.3778653598
0366,0366,Бул. Прага,42.6891006765,23.3133019893
2541,2541,Ул. Любляна,42.6753408542,23.2650553813
1030,1030,Ул. Монтевидео,42.6954136186,23.2520622617
2662,2662,Метростанция Хан Кубрат,42.7225324086,23.3071642843
2676,2676,Бл. 245 Ж.к. Обеля-2,42.746731436,23.2796821207
0057,0057,Автостанция Изток,42.7039145208,23.3869925667
1026,1026,Махала Иваняне - По Желание,42.7164283146,23.1789440436
0294,0294,Бул. Вардар,42.695712701,23.2875779095
2428,2428,Автостанция Изток,42.7038878653,23.3864790016
2479,2479,Ул. 5010,42.6656209458,23.416800926
1451,1451,Разклона За Летището,42.6715031467,23.3949980538
2486,2486,Бл. 323 Ж.к. Младост-3,42.6387945772,23.3748582996
1443,1443,Хайдушки Чукар - По Желание,42.5970046562,23.3548568857
2015,2015,Ул. Крум Стоянов,42.7140337983,23.2984383765
2577,2577,Ул. Бели Дунав,42.733356809,23.2883091499
1043,1043,Металснаб Холдинг,42.7410767534,23.3283626611
1186,1186,Околовръстен Път - По Желание,42.7791062229,23.3133341141
6240,6240,Метростанция Обеля,42.742295359,23.2777682543
2164,2164,Ул. Рояк,42.7133762332,23.3428101628
1993,1993,Ул. Клокотница,42.7082221579,23.3181045668
0341,0341,Бул. Никола Вапцаров,42.665520585,23.3190031225
0786,0786,Ул. Асен Йорданов,42.6524677612,23.3158854346
2323,2323,Хотел Горна Баня,42.6766547918,23.2385822754
1704,1704,Магазин Витоша,42.7121577599,23.2471884737
6332,6332,Пътностроителна Техника - Временна,42.7092483761,23.3695293319
0382,0382,Бул. Христо Ботев,42.7057613701,23.3168798065
2037,2037,Ул. Любляна,42.6749353797,23.2638976901
1118,1118,Начало С. Бистрица,42.5904001237,23.3647318143
1827,1827,Ул. Лазарополе,42.6632450872,23.2456332584
2392,2392,Бл. 472 Ж.к. Младост-4,42.6272051459,23.3786486093
1166,1166,10-ти Дкц,42.7012153516,23.2925144429
1385,1385,Бул. Илиянци-подлеза,42.7191375756,23.3114414126
0517,0517,Депо Искър,42.654487967,23.4111336094
0253,0253,Бл. 715 Ж.к. Люлин-7,42.7147845898,23.260136682
2294,2294,Фохар Ад,42.6424896119,23.2858982263
0228,0228,Бл. 505 Ж.к. Овча Купел-1,42.6856746882,23.2555617543
0192,0192,Бл. 32 Ж.к. Овча Купел-2,42.6892756425,23.2453409978
1147,1147,Гробищен Парк Малашевци,42.7203067546,23.3630275789
2074,2074,Ул. Оборище,42.6931902295,23.354621008
0587,0587,Ж.к. Бъкстон,42.6592799388,23.2728252768
1163,1163,Бл. 21 Ж.к. Люлин-1,42.7288457482,23.2489284831
0924,0924,Балканкерамик Ад - По Желание,42.8069041005,23.3484418278
6566,6566,Дендрариума - По Желание,42.6282544276,23.2302619498
0485,0485,Стоков Базар Илиянци,42.739798194,23.3092710546
2545,2545,Ул. Лесновска Река,42.7809398872,23.3920523181
0364,0364,Бул. Прага,42.6889212064,23.3145288235
1271,1271,Пл. Възраждане,42.6981450956,23.3151658976
0140,0140,Бл. 15 Ж.к. Хр. Смирненски,42.6817463469,23.375479529
1552,1552,Кметство Мърчаево,42.6000792273,23.1702492961
208,208,Сердика 2,42.6987460296,23.3220795939
2782,2782,Ул. Могилата,42.6567277816,23.3270052228
0327,0327,Бул. К. Величков,42.7005253129,23.2968418765
1086,1086,Моста На Р. Стубела,42.6958353142,23.2400301213
2807,2807,Естакада Ж.к. Младост 2,42.6496086681,23.3674102834
0655,0655,Ж.к. Люлин-5,42.7129851523,23.2387008083
0736,0736,Зеленчукова Градина,42.7506335884,23.399146979
2304,2304,Ханчето - По Желание,42.6264849869,23.3587416549
1992,1992,Ул. Китката - По Желание,42.6874905281,23.1190410781
2231,2231,Ул. Хан Кубрат,42.7264321527,23.2899349044
2280,2280,61-во Оу,42.7379515437,23.2902897458
1596,1596,Ул. Тинтява,42.7001359006,23.1497819689
1866,1866,Ул. Велчо Атанасов,42.6967593869,23.3596732084
2730,2730,Ул. Родопски Извор,42.6673668201,23.2820980562
1298,1298,Пл. Руски Паметник,42.6926662617,23.311198956
1356,1356,По Желание,42.7418033964,23.555251683
0927,0927,Кино Одеон,42.6885945535,23.329630595
2442,2442,Бл. 119 Ж.к. Обеля-1,42.7366752619,23.2721327903
0020,0020,26-ти Дкц,42.7256019212,23.2549377801
0123,0123,Бл. 22 Ж.к. Дианабад,42.6582490479,23.3419960735
1359,1359,Кариерни Материали Ад,42.7522835751,23.4204639486
0231,0231,Бл. 527 Ж.к. Овча Купел-1,42.6894086503,23.2547809717
0505,0505,Гребна База,42.5979687683,23.4062524782
2065,2065,Хит Маркет Люлин,42.7312299303,23.2666549082
0918,0918,Местност Манилов Дол,42.6988497993,23.1954277155
0138,0138,Бл. 135 Ж.к. Люлин-10,42.7151102649,23.2764430084
0728,0728,Заг Динамик Ад,42.7316495072,23.3171343815
1206,1206,Опитна Станция,42.7414580563,23.4047248827
1960,1960,Ул. Индира Ганди,42.7095461424,23.260385914
2529,2529,83-то Оу Панчарево,42.595601284,23.4091213091
2706,2706,Гара Горна Баня,42.6737301305,23.2401780764
1708,1708,Пазара Овча Купел,42.6838445334,23.2417541843
0768,0768,Институт По Черна Металургия - По Желание,42.7472632545,23.5093257314
0979,0979,Начало С. Локорско,42.7879847481,23.4446409299
6065,6065,Детски Стационар - По Желание,42.621932746,23.2259650296
0067,0067,Нбу,42.676544418,23.2532277542
0425,0425,В.з. Герман,42.6256570817,23.4226532191
1738,1738,Пгд Елисавета Вазова,42.6809744516,23.3076575808
0226,0226,Бл. 501 Ж.к. Дружба-2,42.6432319149,23.412242936
0986,0986,Края С. Житен,42.821542087,23.247925721
0695,0695,Гара Чепинци,42.7655968206,23.4345243906
0944,0944,Община Младост,42.641513163,23.3813393478
0029,0029,36-ти Пощенски Клон,42.7206654906,23.2527800844
0039,0039,60-то Оу,42.742287633,23.3457384082
1084,1084,Моста,42.7195110216,23.0889172514
0024,0024,28-ми Дкц,42.6648069067,23.4061267312
0043,0043,8-ми Дкц,42.7282627101,23.291210467
1631,1631,Бул. Кръстьо Пастухов,42.6682451425,23.4016573169
6063,6063,Бялата Вода - По Желание,42.6432351737,23.2329345329
1145,1145,Нова Враждебна,42.6914360608,23.4477523263
1715,1715,Община Люлин,42.715069462,23.2504566185
2091,2091,Ул. Орион,42.7181617602,23.2779604813
2293,2293,Фондови Жилища,42.7537412479,23.3292045115
2833,2833,Разклона За С. Герман,42.6210366427,23.4201205814
0199,0199,Бл. 350 Ж.к. Люлин-3,42.7249954549,23.2448238224
0513,0513,Автосервиз,42.7139068813,23.3574354246
2001,2001,Ул. Козлодуй,42.7069982762,23.3245602281
6089,6089,Метростанция Мизия,42.6838059211,23.2569768132
0887,0887,Кв. Орландовци,42.7174249881,23.3392851382
1224,1224,29-ти Дкц,42.6638699894,23.2968834385
1364,1364,Ул. Цар Иван Асен Іі,42.5786733894,23.4155163392
1991,1991,Ул. Китката - По Желание,42.6876468929,23.1191784502
0594,0594,Ж.к. Връбница-2,42.739391627,23.2906972577
0727,0727,Заг Динамик Ад,42.7320821629,23.317220498
1089,1089,Моста Долни Пасарел,42.5386639003,23.4998853998
2711,2711,Кантона,42.6709808101,23.2204756106
2831,2831,192 - Ро Соу С. Бистрица,42.5834139633,23.359201058
0172,0172,Бл. 241 Ж.к. Обеля-2,42.7482173878,23.27698656
0403,0403,Бул. Шипченски Проход,42.6787145407,23.3607769219
2362,2362,Пл. Витоша,42.7561410263,23.4297515541
5,5,Константин Величков,42.7018586314,23.29824833
2072,2072,Ул. Оборище,42.6937331111,23.3552471996
1666,1666,Ул. Цар Иван Шишман,42.5795914177,23.4180603687
1309,1309,Пл. Сред Село,42.6612665977,23.24374745
2003,2003,Ул. Козлодуй,42.7069605587,23.3232959692
0623,0623,Ж.к. Иван Вазов,42.6770079852,23.3033179428
2616,2616,Спортна Зала Арена Армеец,42.6713007841,23.3705471755
2679,2679,Метростанция Г. М. Димитров,42.6627069961,23.356198676
1821,1821,Ул. Алеко Константинов,42.696351721,23.3492635649
2720,2720,Вз. Люлин,42.6523651949,23.1921602323
1258,1258,Площад На Авиацията,42.6696602435,23.3685151403
2033,2033,Ул. Луи Айер,42.66282478,23.3034457959
2273,2273,144-то Соу,42.643401997,23.3795740529
2278,2278,61-во Оу,42.7374693157,23.2902953595
2292,2292,Фондови Жилища,42.7531595666,23.3291245808
1161,1161,117 - То Соу,42.7573452551,23.5556670911
2,2,Люлин,42.7186044436,23.2567822658
2094,2094,Ул. Орфей,42.7608948457,23.4228643613
1430,1430,Разклона За С. Гурмазово - По Желание,42.7269352669,23.2162076649
1643,1643,Ул. Ручей,42.7182038611,23.1339312845
2692,2692,Ул. Стоян Михайловски,42.6730595435,23.3368838807
6430,6430,Метростанция Кн. Мария Луиза,42.7138410759,23.3131426036
0262,0262,Гробищен Парк Бояна - По Желание,42.6507771024,23.2784345945
1180,1180,Околовръстен Път,42.6958310615,23.2308415407
2805,2805,Бул. Акад. Ив. Ев. Гешов,42.6793920394,23.3018980943
0113,0113,Бетонов Възел - По Желание,42.7538827277,23.2755936153
0114,0114,Бетонов Възел - По Желание,42.7543139722,23.2754895991
0519,0519,Депо Искър,42.6560862694,23.4144029874
2421,2421,Ул. Пловдив,42.7089630024,23.2997995164
1978,1978,Ул. Каменоделска,42.7152399536,23.341032753
2005,2005,Ул. Константин Бодин,42.7249062145,23.2922606664
21,21,Искърско Шосе,42.6680552106,23.4023337025
2261,2261,Ул. Райска Градина,42.660827731,23.2485138416
0444,0444,Умбал Св. Екатерина,42.6855772931,23.3120362884
6452,6452,Бул. Д-р Петър Дертлиев,42.712019994,23.2687893203
0500,0500,Горублянско Ханче,42.6382841562,23.4124515709
0359,0359,Надлез Надежда,42.7141701592,23.3077931057
1789,1789,Търговски Ц-р Люлин,42.7180544476,23.2533998486
0931,0931,Киноцентър Бояна,42.6416783366,23.2928414745
1253,1253,Западен Парк,42.7149864406,23.2840337
2063,2063,Ул. Нишава,42.6693197873,23.3036102646
1282,1282,Пл. Македония,42.6938260363,23.315004875
1483,1483,Моста На Сухата Река,42.6210126022,23.3272712945
1263,1263,Петте Могили,42.7330045484,23.3896576969
1281,1281,Пл. Македония,42.6940932008,23.3151185846
1113,1113,Надлез Надежда,42.7146570053,23.3109951068
2656,2656,В.з. Бункера-по Желание,42.609299628,23.366474945
1878,1878,Ул. Вихрен,42.6647414219,23.2749352731
1943,1943,Ул. Стара Планина,42.7116873009,23.1445051595
2158,2158,Ул. Рилска Обител,42.7015312458,23.3789164721
0162,0162,Бл. 207 Ж.к. Обеля-2,42.7464913069,23.26930685
1752,1752,Пп Успех,42.7322299879,23.2527078663
2147,2147,Ул. Проф. Ив. Шишманов,42.7074391198,23.3593334542
1388,1388,Бл. 11 Ж.к. Люлин-1,42.7310855861,23.2487018416
0017,0017,20-ти Дкц,42.6709796221,23.2823598946
0607,0607,Ж.к. Дружба-1,42.67047513,23.3971551461
1633,1633,Хюндай България,42.7440397157,23.3180064224
1618,1618,Стадиона Банкя,42.7116303624,23.1582576862
6587,6587,Ул. Атанас Манчев,42.6495464349,23.3465892785
20,20,Дружба,42.6587449987,23.3945583903
0431,0431,В.з. Банкя,42.6964672069,23.1494209088
0670,0670,Ж.к. Младост-4,42.6255192521,23.3844122546
0508,0508,Гробищен Парк Негован,42.7669039525,23.4087471239
0915,0915,Военноремонтен Завод,42.7564123676,23.209516705
0191,0191,Бл. 32 Ж.к. Овча Купел-2,42.6893126603,23.2466482117
1085,1085,Моста На Р. Стубела,42.6959379834,23.2394853938
1400,1400,Посолствата,42.6527261713,23.3677161921
2028,2028,Ул. Ливадите - По Желание,42.8169178329,23.3738733508
0331,0331,Ул. Христо Силянов,42.7327868792,23.2958917205
2088,2088,Ул. Орехова Гора,42.6690108643,23.2979125868
0957,0957,Община Банкя,42.7060395641,23.1479597513
2262,2262,Ул. Юрий Гагарин,42.73277806,23.5538463836
1068,1068,Мината - По Желание,42.594427459,23.3645441636
1769,1769,Пътен Възел Яна - По Желание,42.7226675741,23.5423273689
2684,2684,Ул. Захари Попов,42.7644123389,23.5658885707
1254,1254,Пета Градска Болница,42.7134118355,23.3149851306
1464,1464,Ним,42.6572198886,23.2727585642
1646,1646,Начало С. Войнеговци - По Желание,42.7987375776,23.4220473615
0491,0491,Стоков Базар Илиянци,42.7388966287,23.3096323559
2496,2496,По Желание (вердикал),42.722188127,23.1289991773
2619,2619,Ул. Еделвайс - По Желание,42.7897016818,23.3098355445
0210,0210,Бл. 41 Ж.к. Младост-1,42.6559122529,23.3751730982
0705,0705,Ж.п.прелез,42.7541550979,23.2130313506
2132,2132,Ул. Поручик Гр. Загорски,42.7178452947,23.2406074328
2155,2155,Ул. Резбарска,42.7104172748,23.3547805697
2698,2698,Заслон Бай Кръстьо,42.6045488095,23.3007178938
0699,0699,Ж.п.прелез,42.733979187,23.3231245768
1471,1471,Воденичарски Механи-по Желание,42.6224920747,23.3090883133
1332,1332,Централна Гара,42.711246233,23.3197081595
0599,0599,Ж.к. Гоце Делчев,42.6599386356,23.2972300154
2351,2351,Техническа Библиотека,42.6645042582,23.3607109547
6734,6734,Вилите - Временна,42.6268930537,23.3188220319
2202,2202,Ул. Царибродска,42.7147750223,23.1406429129
2526,2526,Пречиствателна Станция,42.7533872537,23.3532373789
1299,1299,Пл. Руски Паметник,42.6917853788,23.3097989494
0102,0102,Баня Панчарево,42.6028539015,23.402514023
1674,1674,Стопанство Михайлово - По Желание,42.7005723798,23.1258468651
2562,2562,Ул. Андрей Германов,42.737582297,23.2612400638
2084,2084,Ул. Опълченска,42.6986575149,23.3089043467
2172,2172,Ул. Синчец,42.6064045836,23.4700320094
2087,2087,Ул. Опълченска,42.7053827349,23.3134857162
1577,1577,Тюф,42.6763135097,23.4009858015
0649,0649,Ж.к. Люлин-1 2,42.7299276445,23.2471501075
2187,2187,Ул. Стара Планина,42.8503621298,23.2672549876
6615,6615,Ул. Презвитер Козма,42.6748995635,23.3221204246
1743,1743,Технически Университет,42.6576381303,23.359254514
2398,2398,Бл. 539 Ж.к.люлин-5,42.7115644708,23.2416308418
0361,0361,Метростанция Мизия,42.6830867884,23.2560930859
1440,1440,Махала Япаджа,42.7099224213,23.4315255453
1109,1109,Стц Интерпред,42.6707753403,23.3515706337
2288,2288,160-то Оу,42.7624443033,23.4314171529
1284,1284,Пл. Македония,42.6947984532,23.3160159243
0507,0507,Гробищен Парк Негован,42.7668237552,23.4088060943
0604,0604,Ж.к. Дружба-1,42.6700658501,23.3982168657
0956,0956,Община Нови Искър - По Желание,42.8031144959,23.3441899823
0184,0184,Бл. 3 Ж.к. Дружба-1,42.6649849666,23.3907854317
0482,0482,Ул. Синчец,42.7819431826,23.3841603897
1016,1016,Метростанция Цариградско Шосе,42.6502955708,23.3935582048
1642,1642,Ул. Ручей,42.7180700486,23.1340533789
0413,0413,В.з. Киноцентър,42.6369692108,23.297830789
1341,1341,Площада Кв. Враждебна,42.7124220811,23.4199626766
0137,0137,Бл. 115 Ж.к. Люлин-10,42.716629439,23.2755516044
1990,1990,Ул. Кирил Христов,42.769564671,23.3594229245
2131,2131,Ул. Поп Груйо,42.7021668733,23.3824140933
6599,6599,Бл. 28 Ж.к. Левски-г,42.7132839045,23.3842984255
202,202,Бели Дунав,42.7352029468,23.2931340246
206,206,Централна Гара,42.7101650654,23.3222296541
0186,0186,Бл. 301 Ж.к. Люлин-3,42.7228333676,23.2488047634
0952,0952,Кметство Лозен,42.6016710499,23.4868623863
1098,1098,Моста На Р. Искър,42.7090998745,23.418360224
1449,1449,Разклона За Ап Дружба,42.6496388898,23.413713695
6037,6037,Метростанция Овча Купел,42.6822594975,23.2709790018
0659,0659,Хотел Амбасадор,42.638489709,23.3344109713
2327,2327,Хотел Плиска,42.6755579727,23.3588933149
0813,0813,Метростанция Мизия,42.6830843903,23.255835553
1661,1661,Края На С. Железница - По Желание,42.529233145,23.3644260189
1973,1973,Ул. Калиманци,42.6872245543,23.3657887871
1740,1740,Технически Университет,42.6566504778,23.3590537832
1226,1226,29-ти Дкц,42.6643063263,23.2976979735
0612,0612,Ж.к. Дружба-2,42.6397589196,23.4162876899
0914,0914,Кв. Кръстова Вада,42.6495183343,23.315506076
1659,1659,Езерото,42.7063361276,23.4735898193
2643,2643,К-с Цариградски,42.6445464635,23.4006345798
16,16,Бизнес Парк София,42.6298671746,23.3730660501
2333,2333,Централен Гробищен Парк,42.7115766996,23.3371456389
1093,1093,Моста Кв.враждебна,42.7119073069,23.4079048695
2204,2204,Ул. Теофил Ганев,42.7096866411,23.3573586881
1693,1693,Студентски Град,42.646828609,23.3466085735
1883,1883,Ул. Владайско Въстание - По Желание,42.6543225077,23.2276085657
0676,0676,Община Връбница,42.7302202327,23.2869072941
0363,0363,Бул. Прага,42.6887988652,23.3147954364
6457,6457,Ул. 6-ти Септември,42.6948182503,23.3303511405
1196,1196,Умбал Св. Анна,42.6627628106,23.3769011901
1667,1667,Ул. Веско Веселинов,42.7904324324,23.4450303862
2806,2806,Естакада Ж.к. Младост 2,42.6498018752,23.3671011614
0672,0672,Ж.к. Мотописта,42.6692560608,23.2916983211
0030,0030,36-ти Пощенски Клон,42.7207399126,23.2529053355
0913,0913,Кв. Христо Ботев,42.6893816603,23.3827385219
201,201,Ломско Шосе,42.7404642226,23.2873401387
0457,0457,Гара Курило - По Желание,42.8180667159,23.3559313305
0920,0920,Ул. Чепинско Шосе,42.7235410713,23.3697103294
0497,0497,Горублянско Ханче,42.6381086611,23.4115167286
2572,2572,Метростанция Вардар,42.7060227284,23.2828607849
6567,6567,Златни Мостове,42.6097336716,23.2357432499
0141,0141,Бл. 155 Ж.к. Дружба-1,42.6578850254,23.397913346
0769,0769,Институт По Черна Металургия - По Желание,42.7473206513,23.5088758997
1358,1358,Кариерни Материали Ад,42.75275525,23.4210212545
6616,6616,Ж.к. Младост-1,42.6506272048,23.3676885385
0556,0556,Дяволски Мост - По Желание,42.5607974255,23.4226988933
1944,1944,Централен Гробищен Парк,42.7111387854,23.3322766219
6066,6066,Детски Стационар - По Желание,42.6219154153,23.2261247811
0124,0124,Бл. 22 Ж.к. Дианабад Бл. 1,42.6581903647,23.3425717322
0333,0333,Бул. Ломско Шосе,42.7360548774,23.2939669312
0874,0874,Кв. Обеля,42.7424647201,23.2660686232
1447,1447,Разклона За С. Плана,42.4831286403,23.4093756389
0367,0367,Бул. Проф.цв. Лазаров,42.673523309,23.3828417071
6238,6238,Хюндай България,42.7431578964,23.3187561046
1401,1401,Посолствата,42.6530788772,23.3678399306
1460,1460,Разсадник Мало Бучино,42.6896799842,23.1749438904
1499,1499,Начало С. Владая - По Желание,42.6345269735,23.1956493935
0310,0310,Бул. Гоце Делчев,42.665888316,23.3031358693
1560,1560,Кв. Челопечене,42.731678988,23.4762803252
2465,2465,Ул. Мак,42.676161187,23.2325121143
6158,6158,Метростанция Вардар,42.7062695979,23.2840567616
0896,0896,Кв. Република,42.7368496146,23.2428066339
2654,2654,Метростанция Витоша,42.660114614,23.3167935117
6453,6453,Метростанция Вардар,42.7055740058,23.2858525435
0016,0016,20-ти Дкц,42.6716426226,23.2836779997
1845,1845,Ул. Боряна,42.6738757104,23.2523939903
0046,0046,Ул. Пощенска,42.7217070626,23.341947914
1381,1381,Начало Кв. Иваняне - По Желание,42.7098342786,23.1853829925
1692,1692,Унсс,42.6518492463,23.3487286836
2395,2395,Бл. 480 Ж.к. Младост-4,42.6263624646,23.3823676699
2512,2512,Разклона За С. Долни Богров,42.7051517989,23.4897681128
1136,1136,Ндк,42.688995461,23.3198054806
0091,0091,Технотест,42.6782751766,23.3996256098
1091,1091,Моста За Резиденция Врана,42.6369227824,23.4200926044
2850,2850,Ул. Чавдар Мутафов,42.6557947198,23.3331222427
1514,1514,Кметство Владая,42.6285211445,23.1957719455
0370,0370,Бул. Проф.цв. Лазаров,42.6737453876,23.3825748787
6278,6278,Ул. Костенски Водопад,42.6618384788,23.2949004707
0870,0870,Ул. Топлика - По Желание,42.69015414,23.1191187763
1373,1373,По Желание,42.5560896851,23.3649088697
2499,2499,Ул. Кало,42.6020080687,23.174114863
0797,0797,Католически Гробищен Парк,42.7161133927,23.3401232846
6600,6600,Ж.к. Левски Г,42.7119005788,23.3881123185
0557,0557,Дяволски Мост - По Желание,42.5610410745,23.4227064167
1802,1802,Ул. 5,42.6353688638,23.2994151314
2756,2756,Метростанция Витоша,42.6578364876,23.316035059
10,10,Жолио Кюри,42.6714596774,23.3507855163
1074,1074,Младежки Театър,42.6988158907,23.3267844255
2331,2331,Царева Махала,42.5244967804,23.3601733829
1860,1860,Ул. Васил Кънчев,42.7119503475,23.3550637993
0764,0764,Нсбал По Онкология,42.6627331163,23.3580304631
1550,1550,Село Мрамор,42.78533605,23.2736109322
1285,1285,Пл. Мегдана,42.8217647814,23.2830575965
2188,2188,Село Подгумер,42.8068642531,23.4043160299
2310,2310,Хладилен Завод,42.7087356402,23.3345840014
0049,0049,Авторемонтна База,42.6255560276,23.4468307554
1496,1496,Руско Посолство,42.6729330764,23.3474666652
2000,2000,Ул. Козлодуй,42.706899237,23.3237711134
0730,0730,Зала Фестивална,42.6845806691,23.364456612
2071,2071,Ул. Оборище,42.69265917,23.3549651179
6005,6005,Ул. Димитър Петков,42.7076859546,23.3026055038
0782,0782,В.з. Симеоново-драгалевци,42.6229435999,23.3216305312
1652,1652,Промишлена Зона Горни Лозен,42.6145416804,23.4603579911
1612,1612,Стадион Г. Аспарухов,42.7032900212,23.3648104611
2354,2354,Нц По Радиобиология,42.6322099433,23.3547873892
2732,2732,Пазар Малашевци,42.7185546428,23.3591569028
0012,0012,140-то Соу,42.7459592407,23.2748443371
1436,1436,Работилницата,42.697815194,23.4437991921
2203,2203,Ул. Теменуга,42.8268788063,23.3534282761
1906,1906,Ул. Г. Бенковски,42.7588931999,23.2051499001
2495,2495,Технополис Ж.к. Младост-4,42.6236522573,23.3798727686
2696,2696,Разклона За Драгалевски Манастир,42.6199401895,23.2973613422
0593,0593,Ж.к. Връбница-1,42.7347041296,23.2862586559
0441,0441,Военна Академия,42.6926397255,23.3436502788
1781,1781,Триъгълника Ж.к. Люлин,42.7253411624,23.2647493481
2385,2385,Магазин Мосю Бриколаж,42.7322867002,23.2494484033
2481,2481,Ул. Макгахан,42.7066481789,23.3506295118
2636,2636,Ул. Св. Петка,42.7851543666,23.500256294
2714,2714,Кошарите,42.6609655983,23.2099831733
0023,0023,Онкологичен Диспансер,42.6545950456,23.3690785873
1701,1701,Промишлена Зона Казичене,42.6676697487,23.4476832864
1374,1374,В.з. Малинова Долина,42.6241279155,23.3615212482
0771,0771,Институт Пушкаров - По Желание,42.7344748482,23.2368208447
0951,0951,Кметство Село Яна,42.730894856,23.5578201936
0715,0715,Спиидо Еоод,42.7212078224,23.2847353174
1840,1840,Ул. Бесарабия,42.7067553261,23.3738664396
2266,2266,Манастир Св. Никола,42.5545410761,23.4284368626
0414,0414,Околовръстен Път,42.6242765287,23.3582026533
2098,2098,Ул. Освобождение,42.6945167827,23.2922785853
0022,0022,Онкологичен Диспансер,42.6548841728,23.3701774265
1777,1777,Кв. Триъгълника,42.7196255584,23.3092191101
0532,0532,Детски Дом Киноцентър,42.642541856,23.2891641916
0974,0974,София Мед Ад,42.658257952,23.4150543491
6221,6221,Метростанция К. Величков,42.7017656804,23.2984789657
0348,0348,Бул. Никола Петков,42.6651379993,23.2601158561
0988,0988,Кулинарен К-т Пейфил,42.6385440044,23.3971907644
2637,2637,156 - То Оу,42.7849103621,23.5045930704
1678,1678,Ул. 19,42.6021333337,23.1657981211
2359,2359,Ул. Ралица,42.603293337,23.4746363747
6737,6737,Ул.маестро Атанасов - Временна,42.625745376,23.310031012
2124,2124,Ул. Поп Груйо,42.7104120504,23.3795066961
1511,1511,Село Балша,42.8544984623,23.2643940576
1994,1994,Ул. Клокотница,42.7086239857,23.3182370257
2574,2574,Ул. Ген. Никола Жеков,42.7342843446,23.3084720759
0981,0981,Ул. Меча Поляна - По Желание,42.6495255734,23.2454700599
9,9,Стадион Васил Левски,42.6861268389,23.3321798404
2588,2588,Бул. Проф. Цв. Лазаров,42.6510968871,23.4056360221
0007,0007,12-ти Дкц,42.718784239,23.2689341564
0518,0518,Депо Искър,42.6563594908,23.4145108427
0961,0961,Кметство Лозен,42.6017326026,23.4869507725
1343,1343,Пк Диана,42.6651747844,23.3428693091
2754,2754,Бл. 458 Ж.к. Младост 4,42.6345375907,23.3728917133
0246,0246,Бл. 66 Ж.к. Младост-1,42.6510504354,23.3762978922
0683,0683,Метростанция Горна Баня,42.682299832,23.242123231
1270,1270,Пл. Възраждане,42.6974273165,23.3143044933
1632,1632,Бул. Кръстьо Пастухов,42.6677607541,23.4028039143
1968,1968,Ул. Йосиф Щросмайер,42.7122815787,23.3005824316
0653,0653,Ж.к. Люлин-3,42.7209486696,23.2420793713
2257,2257,Ул. Цветна Градина,42.6328028721,23.4090382677
1812,1812,Ул. 61,42.7105223727,23.4028443404
1750,1750,Тец Изток,42.6505985747,23.4137203449
1555,1555,Село Негован,42.769098586,23.4049722578
2661,2661,Метростанция Хан Кубрат,42.7223046047,23.3069868533
1094,1094,Моста На Владайска Река,42.7166763863,23.3519304677
2504,2504,Ул. Хан Крум Кв. Максим Горки,42.7733207781,23.1849747817
1880,1880,Ул. Вишнева,42.6782580464,23.3337018596
2299,2299,Търговски К-с Надежда,42.7265405619,23.3023719866
2722,2722,Промишлена Зона Ул. В. Левски - По Желание,42.7576436869,23.2753936381
6591,6591,Румънско Посолство,42.6850648094,23.3512484757
0737,0737,Зеленчукова Градина,42.7502777357,23.3992139486
1238,1238,Паметника С. Доброславци,42.8221025206,23.2856267535
0251,0251,Бл. 706 Ж.к. Люлин-7,42.713464752,23.2646411784
1855,1855,Ул. Стар Беловодски Път - По Желание,42.6472601288,23.2471064389
1901,1901,Ул. Ген. Никола Жеков,42.7341123997,23.3086186977
2117,2117,Ул. Подуенска,42.700768073,23.3514798195
2649,2649,Местност Камбаните,42.6230053195,23.374793377
1585,1585,Сервиз Полмо,42.7286798735,23.344225698
1613,1613,Стадион Г. Аспарухов,42.7067825557,23.3620998623
0378,0378,Женски Пазар,42.7007158597,23.3182618756
0899,0899,Кв. Симеоново,42.6123149255,23.3389286917
0334,0334,Бул. Ломско Шосе,42.735969932,23.2940366256
1360,1360,Махала Чемерник - По Желание,42.5262013797,23.3681773435
1218,1218,Оц Овча Купел,42.6886641576,23.2622986391
0488,0488,Промишлена Зона,42.6577369308,23.4259012547
1504,1504,Сба - По Желание,42.6195872687,23.4032767441
1694,1694,Студентски Град,42.6465616223,23.3464524851
1937,1937,Ул. Драва,42.7179268888,23.2179048337
0053,0053,Автостанция Гео Милев,42.6775381931,23.3706497347
1583,1583,Бул. Владимир Вазов,42.7054706891,23.4007273333
2068,2068,Метростанция Овча Купел,42.6824488947,23.2709214922
2270,2270,129-то Оу,42.6939748904,23.3475346707
6694,6694,Гробищен Парк Драгалевци - Временна,42.634297823,23.3104498338
0818,0818,Кв. Вердикал,42.7198643723,23.1309364871
1660,1660,Странноприемницата,42.6142397008,23.5012142571
0744,0744,Софарма Ад,42.7358272252,23.3174849066
1702,1702,Промишлена Зона Казичене,42.6680781165,23.4470268874
1834,1834,Ул. Баевица - По Желание,42.6491260508,23.2565050437
2099,2099,Ул. Освобождение,42.6944539493,23.2926513386
6064,6064,Музей На Мечката - По Желание,42.6354845011,23.2253612599
0950,0950,Кметство Село Яна,42.7312870873,23.5580107679
1365,1365,Ул. Цар Иван Асен Іі,42.5786263579,23.4156033419
1516,1516,Село Войнеговци,42.8039556296,23.4228707776
1599,1599,Балкан Стар,42.710917626,23.3513310965
0455,0455,Гара Казичене,42.6548820634,23.459510373
2219,2219,Кенди Оод - По Желание,42.7174471116,23.1838251635
2493,2493,Кино Арена Іі,42.6238737402,23.3760272364
1313,1313,Пл. Сточна Гара,42.7043315038,23.3331572961
1793,1793,Ул. 2,42.7428892485,23.2730101852
1800,1800,Ул. Иван Андонов,42.6571557346,23.3109611088
2811,2811,Ул. Сава Филаретов,42.72969458,23.2992383039
1881,1881,Ул. Вишовград,42.7129587375,23.3082065453
2386,2386,Ул. Обрадовски Път,42.7478658982,23.3507252023
6298,6298,Центъра Банкя,42.7074360678,23.1463170429
2739,2739,Метростанция Дружба,42.6581622976,23.3936421671
0147,0147,Бл. 170 Ж.к. Дружба-1,42.6563746962,23.4058680306
1015,1015,Ж.к. Дървеница,42.6510421945,23.3589197689
1964,1964,Ул. Искър,42.7009175697,23.3339234652
1390,1390,Ул. Венера,42.6944665276,23.1480240425
0621,0621,Гара Захарна Фабрика,42.711251353,23.2890981565
1469,1469,Бл. 4 Ж.к. Сухата Река,42.6990706956,23.3652821502
0446,0446,Ул. А. Константинов - По Желание,42.697469554,23.1220782891
0777,0777,Ул. Инж. Георги Белов,42.6389833871,23.4059757555
0527,0527,Детски Дом,42.6740066081,23.4308730811
2265,2265,Уникални Конструкции - По Желание,42.759210035,23.4868270928
1826,1826,Ул. Ангел Войвода,42.7066102284,23.3580082966
2168,2168,Ул. Сан Стефано,42.6964937372,23.3399157652
1416,1416,Ул. Мала Кория - По Желание,42.6510705358,23.2192676564
1772,1772,Трд,42.7532688772,23.273487792
0078,0078,Ап Дружба,42.6491689719,23.4161572998
0810,0810,В.з. Беловодски Път - По Желание,42.649880522,23.2482162636
2081,2081,Ул. Опълченска,42.7060320405,23.3129911347
2765,2765,Кв. Република,42.7372786284,23.2431964199
1394,1394,Българска Телеграфна Агенция,42.6858057701,23.3439424631
1885,1885,Ул. Възрожденска,42.7234530048,23.3020333751
1822,1822,Ул. Алеко Константинов,42.6964378626,23.3495320648
1417,1417,Ул. Мала Кория - По Желание,42.6513511188,23.2198507116
2513,2513,Ул. Гергана,42.7826865954,23.5186169679
2016,2016,Ул. Крум Стоянов,42.7137575975,23.2984555674
1397,1397,Висше Училище По Телекомуникации И Пощи,42.6562154193,23.3496109561
2223,2223,Ул. Уошбърн,42.7070944806,23.3450140192
1178,1178,Околовръстен Път,42.6594661549,23.2649045705
2198,2198,Ул. Суходолски Път - По Желание,42.7157257452,23.2213298415
1475,1475,Бл. 6 Ж.к. Сухата Река,42.6998482929,23.3696095831
0351,0351,Метростанция Овча Купел,42.6831151456,23.2705348424
0534,0534,Детски Ясли,42.6487063632,23.3416853294
0515,0515,Депо Искър,42.6550517009,23.4145148449
1523,1523,Село Горни Лозен,42.6015007703,23.4829765103
1696,1696,Ж.к. Изток,42.6715115198,23.3640521533
2151,2151,Ул. Равнец - По Желание,42.7895468675,23.3299503856
2296,2296,Старата Фурна,42.842891152,23.3223820711
0700,0700,Ж.п.прелез,42.7341038463,23.3230153114
1522,1522,Село Горни Богров,42.7162372698,23.5297554791
0640,0640,Ж.к. Красно Село,42.6785658484,23.2848171335
0606,0606,Ж.к. Дружба-1,42.6702325849,23.3975378432
1455,1455,Разклона За Летището,42.6710341448,23.3935658782
2755,2755,Метростанция Витоша,42.6591320686,23.3158380942
2237,2237,Ул. Хоризонт,42.7376497005,23.3367765939
0271,0271,Бул. Акад. Ив. Гешов,42.6791120259,23.3012987258
0571,0571,Електротермия - По Желание,42.7513692839,23.5053330052
0252,0252,Бл. 706 Ж.к. Люлин-7,42.7135958728,23.2646849163
0716,0716,Спиидо Еоод,42.7205289596,23.285277964
1221,1221,Ул. Зорница,42.7633639485,23.2438620298
1574,1574,Семинарията,42.6766383043,23.3335553774
1756,1756,Община Кремиковци,42.7360811507,23.4863737573
2683,2683,Ул. Захари Попов,42.7642105833,23.5663744303
6819,6819,Ул. Маестро Атанасов - Временна,42.6276526122,23.3140087826
1108,1108,Бл. 703 Ж.к. Люлин-7,42.7100124749,23.2659527114
1345,1345,Пк Спартак,42.6755574133,23.3154040657
1733,1733,Телевизионна Кула,42.6778345045,23.3424500606
0478,0478,Гара Яна,42.72721763,23.5551663891
1601,1601,Спи Проф. П. Мутафчиев,42.7080274101,23.4124344569
2229,2229,Ул. Хайдут Сидер,42.7087672418,23.2869207386
2543,2543,Бул. Цар Борис Ііі,42.6865436162,23.2990794912
0050,0050,Автостанция Банкя,42.7084529442,23.1525195588
0187,0187,Бл. 302 Ж.к. Надежда-3,42.732273002,23.2876566882
2743,2743,Ул. Захари Зограф,42.7826386335,23.2737794103
0666,0666,Ж.к. Младост-3,42.6388311101,23.3861398641
0407,0407,Манастир Св. Йоаким И Ана - По Желание,42.5665194428,23.3634090329
2096,2096,Ул. Оряхово,42.710970719,23.2919917926
0711,0711,Ул. Княгиня Косара,42.6974013249,23.3752189144
0,0,Обеля,42.7410804166,23.2765359651
2804,2804,Бул. Акад. Ив. Ев. Гешов,42.6793572167,23.3013238807
1354,1354,По Желание,42.7148856529,23.4363427741
1912,1912,Ул. Гоце Делчев,42.7125552583,23.2738657338
1097,1097,Моста На Р. Искър,42.7087818303,23.4190403756
1371,1371,По Желание,42.8489227098,23.2676380555
2390,2390,Бизнес Парк София,42.6286469478,23.3751471119
1058,1058,Метростанция Опълченска,42.6996645111,23.312611198
0822,0822,Кв. Витоша,42.6503425346,23.3355749319
2490,2490,Метростанция Бизнес Парк,42.6290327538,23.37281432
2173,2173,Ул. Синчец,42.6063428773,23.4699918757
2268,2268,Калфин Дол - По Желание,42.5957184179,23.3595516193
1087,1087,Моста Кв. Витоша,42.6548275166,23.3360801474
1886,1886,Ул. Георги Раковски,42.6867308055,23.3228606113
1957,1957,Ул. Люляк - По Желание,42.5324515381,23.3651772903
2605,2605,Кметство Божурище,42.7630657841,23.1982219443
0110,0110,Бетонов Възел,42.7364568617,23.3251098172
1389,1389,Ул. Венера,42.6943671806,23.148040649
0235,0235,Метростанция Дружба,42.6592058172,23.3954991248
1335,1335,Плажа Панчарево,42.5879241534,23.4199281178
6246,6246,Ремонтна База,42.7132772082,23.160144264
0335,0335,Ул. Луи Пастьор,42.7130105695,23.2658774647
0443,0443,Умбал Св. Екатерина,42.6860446048,23.3117485632
0641,0641,Ж.к. Красно Село,42.679431034,23.2838885666
1207,1207,Опитна Станция,42.6225980063,23.4504360101
1473,1473,Ресторант Златната Рибка - По Желание,42.5612503246,23.4517433071
0585,0585,Ж.к. Ботунец -2 - По Желание,42.7388349645,23.5039640334
2678,2678,Бл. 245 Ж.к. Младост 2,42.6464181025,23.3680556762
1512,1512,Село Бистрица,42.5862457757,23.3605502121
2143,2143,Ул. Просвета,42.7245259861,23.3160179123
1773,1773,16-ти Дкц,42.7386057666,23.5067436693
207,207,Лъвов Мост,42.7049399868,23.3237618295
1314,1314,Пл. Сточна Гара,42.7047497157,23.3340971902
2500,2500,Ул. Витоша,42.5321553489,23.3674684747
0721,0721,Ул. 5007,42.671020993,23.4089076832
2249,2249,Ул. Цар Симеон,42.705619603,23.2988042481
2628,2628,Гробищен Парк Кремиковци - По Желание,42.7803481646,23.5119609775
0677,0677,Ж.к. Обеля-1,42.7371614035,23.2682389637
1687,1687,Моста На Лесновска Река,42.7334054372,23.4660368593
1379,1379,По Желание,42.7115907059,23.191990397
1707,1707,Супермаркет,42.7367133737,23.5154952707
12,12,Мусагеница,42.6582782309,23.3648764654
0183,0183,Бл. 3 Ж.к. Ботунец-1,42.7359521114,23.5128051743
0288,0288,Бул. Братя Бъкстон,42.6747510472,23.2790157735
0132,0132,Бл. 111 Ж.к. Обеля-1,42.7379615658,23.2708971534
0280,0280,Бул. Ал. Стамболийски,42.6988168559,23.3038864857
1521,1521,Село Горни Богров,42.7181515189,23.5292854867
2761,2761,Параклис Св. Вмчк Мина,42.5046473862,23.3326456581
2408,2408,Хипермаркет Практикер,42.6416533936,23.4090785585
2613,2613,Манастир Св. Теодор Стратилат - По Желание,42.8425803206,23.2771723041
1592,1592,Скиорката - По Желание,42.6497060195,23.2603265929
1706,1706,Пазара Овча Купел,42.6842727553,23.2412099994
2069,2069,Ул. Обиколна,42.6487456365,23.4045039853
6088,6088,Ул. Т. Каблешков,42.669768531,23.2763261479
1869,1869,Ул. Витиня,42.7054821866,23.3696344877
0376,0376,Бул. Сливница,42.704968723,23.3175520445
6159,6159,Бул. Луи Пастьор,42.7140939115,23.2654637743
2536,2536,Ул. Стара Планина,42.7871546006,23.5200015888
0876,0876,Кв. Овча Купел,42.6720867191,23.2732242765
0178,0178,Бл. 255 Ж.к. Дружба-2,42.6518591396,23.4048109853
0969,0969,Пазара Младост 1,42.652797659,23.3738423561
0845,0845,Кв. Изгрев - По Желание,42.7156234623,23.1720582341
1958,1958,Ул. Илия Бешков,42.6621748247,23.4047134381
2704,2704,Хотел Морени,42.5887667007,23.2926146317
0647,0647,Пк Спартак,42.6755459399,23.31500977
1011,1011,Лифта Симеоново,42.6170260435,23.3489085881
2142,2142,Ул. Просвета,42.7250574787,23.3176618609
6333,6333,Пътностроителна Техника - Временна,42.7111950177,23.3683593163
2792,2792,Разклона За Лифт Симеоново,42.6244005339,23.3501831909
0204,0204,Бл. 39 Ж.к. Горубляне,42.6342297334,23.3992860576
2658,2658,Ул. Христо Силянов,42.7317952943,23.2955587022
0119,0119,109-то Оу,42.6901724263,23.370185877
1446,1446,Разклона За С. Плана,42.4829921871,23.4093139196
0312,0312,Бул. Гоце Делчев,42.6714528788,23.2938272806
1439,1439,Резиденция Бояна - По Желание,42.6486246459,23.2703333205
0925,0925,Балканкерамик Ад - По Желание,42.8065735397,23.3479577735
1143,1143,Ул. Зад Село,42.6836110601,23.4586788236
1768,1768,Пътен Възел Яна - По Желание,42.7226771034,23.5416550431
0976,0976,Ул. Сребърна,42.6591236744,23.3268916891
0442,0442,Военна Академия,42.6924306417,23.3438540971
2771,2771,Ул. Герена,42.7446011974,23.605647384
1527,1527,Център Долни Лозен,42.6037497533,23.4939342535
1644,1644,Промишлена Зона - По Желание,42.7187128113,23.442963873
0765,0765,Дипломатически Клуб,42.6729421429,23.2465526678
2457,2457,Стоков Базар Илиянци,42.7407397652,23.3176400472
2814,2814,Ул. Васил Левски,42.7462387585,23.6061446774
312,312,България,42.6793918829,23.3009787673
1690,1690,Моста На Лесновска Река,42.7330444785,23.4654614211
1327,1327,Централна Гара,42.7111092751,23.3207441751
0325,0325,Бул. К. Величков,42.7069918688,23.2999782167
0554,0554,Държавна Печатница,42.6566505672,23.3848675678
1194,1194,Умбал Св. Анна,42.6626478134,23.376438429
0469,0469,Гара Подуяне,42.6969648963,23.3536699638
1737,1737,Пгд Елисавета Вазова,42.6809246676,23.307326847
0541,0541,Модна Къща Агресия,42.7269671418,23.3125103551
0724,0724,Ул. Поручик Хр.топракчиев,42.6680919699,23.4130564069
0882,0882,Кв. Овча Купел,42.6722404617,23.2720602073
0681,0681,Ж.к. Обеля-2,42.7463301017,23.2807747039
1171,1171,Околовръстен Път,42.6428325258,23.3129641131
2783,2783,Ул. Могилата,42.6565356255,23.326878139
1584,1584,Сервиз Полмо,42.729253001,23.3442349038
1894,1894,Ул. Ген. Никола Генев,42.7162361517,23.2683173507
2322,2322,Хотел Горна Баня,42.6774833892,23.2375212546
2640,2640,Бл. 8 Ж.к. Кремиковци,42.7814722031,23.5063135802
1130,1130,Начало С. Мърчаево,42.6113668693,23.1797545069
2250,2250,Ул. Цар Симеон,42.7052740101,23.2986409749
0883,0883,Кв. Орландовци,42.7185001501,23.3372658223
2216,2216,Ул. Тодорини Кукли,42.7024045029,23.3609270568
1310,1310,Пл. Сред Село,42.6610823953,23.2434440297
2509,2509,Хотел Макси,42.6429527999,23.3366210567
2344,2344,Център С. Подгумер,42.8028620378,23.4028178119
2634,2634,Ул. Радивоя,42.7819613375,23.4983210483
0409,0409,В.з. Бункера - По Желание,42.610226061,23.3638726548
2800,2800,Село Долни Лозен,42.5993300798,23.4996083871
1096,1096,Моста На Р. Искър Кв. Абдовица,42.6652129862,23.4220381518
1853,1853,Ул. Български Воин,42.7188607893,23.223845063
1062,1062,Метростанция Сливница,42.7274352935,23.2627367321
1537,1537,Село Казичене,42.6622927969,23.4645380791
0889,0889,Кв. Павлово,42.6677740072,23.2656389721
1903,1903,Ул. Ген. Гурко,42.6905962556,23.3320875471
0897,0897,Кв. Сеславци,42.7830235387,23.5175629189
0752,0752,М - Тел,42.7165081427,23.296064164
0855,0855,Кв. Кремиковци,42.7791686182,23.4962585645
6652,6652,Гара Обеля,42.7387230772,23.2647970351
2313,2313,Хлебозавода,42.660343,23.320717
0296,0296,Бул. Вардар,42.6977107656,23.2869697727
1079,1079,Моста На Лесновска Река,42.7072630433,23.4986665712
6166,6166,Село Чепинци,42.7584227223,23.4261790701
308,308,Орлов Мост,42.690505407,23.335903401
1979,1979,Ул. Кап. Д. Списаревски,42.6726719057,23.3878919786
1024,1024,Махала Иваняне - По Желание,42.7201054871,23.1825547015
0440,0440,Военна Академия,42.6921556586,23.3443435166
0811,0811,В.з. Беловодски Път - По Желание,42.6499910866,23.2483902447
2667,2667,Ул. Джерман - По Желание,42.7554218475,23.3189171869
2104,2104,Ул. Планинец,42.6625314421,23.2532842289
0042,0042,66-то Соу,42.6726462981,23.2621997099
0432,0432,В.з. Банкя,42.6962085725,23.1493235002
2635,2635,Ул. Св. Петка,42.7855103106,23.5004967397
1139,1139,Национален Дворец На Културата,42.6859317453,23.319371764
2275,2275,153-та Гимназия,42.7357965304,23.3103940888
2282,2282,177-мо Оу,42.782493362,23.387364798
0250,0250,Бл. 7 Ж.к. Хр. Смирненски,42.6845182348,23.3767458315
0542,0542,Модна Къща Агресия,42.7266226749,23.312105173
1251,1251,Западен Парк,42.7148836267,23.2836770932
1556,1556,Село Плана,42.4870599639,23.408746042
1664,1664,Начало С. Желява,42.738241096,23.6071689619
2824,2824,В.з. Малинова Долина - По Желание,42.6173735045,23.3614699571
0082,0082,Ул. Н. Хрелков,42.6875286257,23.2322072352
0493,0493,Институт По Ортопедия,42.6718588845,23.2430485983
1410,1410,28-ми Пощенски Клон,42.6639090447,23.4109616878
0146,0146,Бл. 170 Ж.к. Дружба-1,42.6557361013,23.4072944313
0722,0722,Ул. 5007,42.6707724867,23.4091054645
1489,1489,Румънско Посолство,42.6860768066,23.3512725707
2042,2042,Ул. Макгахан,42.7064987109,23.3501786588
0139,0139,Бл. 15 Ж.к. Хр. Смирненски,42.6810969858,23.3750873427
0213,0213,Бл. 427 Ж.к. Младост-4,42.6332948116,23.3766932978
1615,1615,Стадион Г. Аспарухов,42.7076314486,23.364429139
2448,2448,Бл. 119 Ж.к. Обеля-1,42.7374660965,23.2722642225
0106,0106,Гробищен Парк Банкя,42.714355175,23.1645860482
0841,0841,Кв. Изгрев - По Желание,42.8198531814,23.3730167955
1766,1766,Ул. Тракийска Могила,42.7835449804,23.3945370193
2842,2842,Ул. Милениум,42.7108365115,23.1772034749
0338,0338,Бул. Мадрид,42.6962860765,23.3517504162
1572,1572,Семинарията,42.6761171775,23.3332473571
2403,2403,Моста На Р.блазна Бара,42.59755245,23.5022897962
0314,0314,Бул. Гоце Делчев,42.6724670154,23.2950573147
1565,1565,Село Чепинци,42.7581113847,23.4255765401
0652,0652,Ж.к. Люлин-3,42.7205227807,23.2425686579
6225,6225,Вма - Временна,42.6843227379,23.3021161476
0959,0959,Кметство Иваняне,42.7077862475,23.1827819362
15,15,Александър Теодоров-балан,42.6413487399,23.3729929632
0755,0755,Стоков Базар Илиянци,42.7381185692,23.3176642611
1784,1784,Трънска Махала,42.6688167389,23.4253262227
1895,1895,Ул. Ген. Никола Генев,42.7158606932,23.2677279877
0630,0630,Ж.к. Дианабад,42.6650455339,23.3554082753
1106,1106,Мотел Божур,42.7468253099,23.2258703921
1431,1431,Разклона За С. Гурмазово - По Желание,42.7264505934,23.2145764633
1638,1638,Края С. Бистрица - По Желание,42.5789591396,23.3596472232
6458,6458,Пл. Княз Александър І,42.6965078264,23.3261652887
2352,2352,Техническа Библиотека,42.6642948593,23.3595266662
2594,2594,Ул. Обиколна,42.6478917745,23.4037538025
1311,1311,Пл. Сточна Гара,42.7050587196,23.3309237046
1825,1825,Ул. Ангел Войвода,42.7079483006,23.357364156
1882,1882,Ул. Владайско Въстание - По Желание,42.6544957997,23.228863369
1893,1893,Ул. Ген. Вл. Динчев,42.7172760267,23.2741524698
1315,1315,Пл. Сточна Гара,42.7057478373,23.3344221443
2520,2520,Екобулсорт - По Желание,42.7301321716,23.2254348639
2737,2737,В.з. Подгумер - По Желание,42.809550305,23.4045891428
0265,0265,Боянско Ханче,42.6454968409,23.2681161375
1468,1468,Ремонтна База,42.713370546,23.1594440611
1833,1833,Ул. Баевица - По Желание,42.6489746738,23.2562462877
2258,2258,Ул. Черковна,42.693416969,23.3521094637
0099,0099,Банята Кв. Гниляне,42.8005876724,23.379944961
1488,1488,Бл. 405 Ж.к. Дружба-2,42.6423565878,23.4072142567
0998,0998,Лагера,42.5118278222,23.3650179614
1100,1100,Моста На Р. Искър,42.7368147781,23.3957196289
2389,2389,Бл. 442 Ж.к. Младост-4,42.6306233151,23.3781276211
6622,6622,Ул. Княжевска,42.6701702022,23.2424439813
0808,0808,Кв. Бояна,42.6494940532,23.2635275079
0857,0857,Кв. Кумарица,42.8010937743,23.340252806
2050,2050,Ул. Монтевидео,42.6715874964,23.2517923998
0357,0357,Бул. Пенчо Славейков,42.6837607396,23.3155549473
1222,1222,Ул. Надежда,42.7539272522,23.4347987016
2208,2208,Ул. Т. Каблешков,42.6686231704,23.2764335528
1770,1770,Ул. Акация - По Желание,42.6490585097,23.2515482139
1033,1033,Мгу Св.ив.рилски,42.6611263971,23.3514781203
0570,0570,Електротермия - По Желание,42.7511306402,23.5055210635
1484,1484,Моста На Сухата Река,42.6204582141,23.3278101527
2766,2766,Бул. Д-р Петър Дертлиев,42.7109196608,23.2459719727
0037,0037,53-то Оу,42.67683805,23.2349624281
0326,0326,Бул. К. Величков,42.700620212,23.296460106
0472,0472,Гара Подуяне,42.6968123764,23.3558281985
0149,0149,148-мо Соу,42.6851836445,23.3718582685
1228,1228,Кв. Факултета,42.6982511413,23.272283748
2380,2380,Южен Парк,42.6746005776,23.3093495774
1949,1949,Ул. Зографски Манастир,42.7062999603,23.2931709019
2138,2138,Ул. Пробуда,42.7375879571,23.3271990596
1032,1032,Мгу Св.ив.рилски,42.6611480407,23.3520067231
0511,0511,Читалище Св.св. Кирил И Методий,42.722211406,23.2704898378
1751,1751,Пп Успех,42.7315991333,23.2533577465
1513,1513,Село Бистрица,42.5863306564,23.3598129291
2315,2315,Хлебозавод Ботунец Ад,42.7373912338,23.5105282971
1620,1620,Стадиона Банкя - По Желание,42.7097337103,23.1608514931
0825,0825,Гара Искър,42.6631169962,23.4156406329
0884,0884,Кв. Орландовци,42.7179034796,23.338938187
0590,0590,Ж.к. Бъкстон,42.6753132446,23.2790500126
1788,1788,Търговски Ц-р Люлин,42.7185600949,23.2534577298
2399,2399,Западен Парк,42.7158083658,23.2838291347
0989,0989,Кулинарен К-т Пейфил,42.6386532058,23.3969158743
2788,2788,66-то Одз Панчарево,42.5978207875,23.4046951848
0168,0168,Бл. 222 Ж.к. Младост-2,42.6451756958,23.3753126603
1924,1924,Ул. Георги Минчев,42.689931789,23.3590132966
1056,1056,Метростанция Люлин,42.7179896715,23.2562680569
0033,0033,Кв. Гара Искър,42.6620515818,23.4156100279
2367,2367,Читалище Отец Паисий,42.6926827086,23.3599560479
0625,0625,Ж.к. Иван Вазов,42.6767359449,23.304783572
0131,0131,Бл. 11 Ж.к. Левски-в,42.7091597603,23.3841131977
2753,2753,Бл. 458 Ж.к. Младост 4,42.6377719197,23.3731294174
0150,0150,148-мо Соу,42.6845402845,23.3717885908
1959,1959,Ул. Илия Бешков,42.662157563,23.4048751551
2148,2148,Ул. Проф.и.георгов,42.725100893,23.3187945646
2585,2585,Ул. Мюнхен,42.6600451337,23.4103605954
0456,0456,Гара Казичене,42.6547498638,23.4597633916
1670,1670,Ул. Липа,42.6860811758,23.1654939772
1,1,Сливница,42.7266073031,23.2614824462
0032,0032,36-то Соу,42.6734814456,23.2859331064
2535,2535,Ул. Липа,42.7799755823,23.5182062322
1984,1984,Ул. Кап. Д. Списаревски,42.6674044725,23.3855844206
2419,2419,Бул. Царица Йоана,42.7114042288,23.2713929565
0313,0313,Бул. Гоце Делчев,42.6725389234,23.2949014756
0671,0671,Ж.к. Мотописта,42.6694093232,23.2919217991
2459,2459,Площада Кв. Враждебна,42.7128029273,23.4190758977
2571,2571,Бл. 38 Ж.к. Западен Парк,42.7035787465,23.2833884407
0256,0256,Бл. 98 Ж.к. Дружба-1,42.6673699332,23.3865332285
1265,1265,Пл. Ал.невски,42.6963648795,23.3300645269
1368,1368,По Желание,42.7611609011,23.2441280312
2290,2290,Селскостопанска Академия,42.6968315874,23.2649428656
2073,2073,Ул. Оборище,42.692658413,23.3551769752
0799,0799,Каучуков Завод Зебра - По Желание,42.8207925906,23.3657179457
6820,6820,Ул. 243 - Временна,42.6253803862,23.3174229158
1133,1133,Начало С. Плана,42.4797122052,23.3986256951
2388,2388,Бл. 442 Ж.к. Младост-4,42.6306019626,23.3790341426
1236,1236,Център Кв. Ботунец,42.7396123555,23.5116117956
2102,2102,Ул. Охрид,42.7084793982,23.3124989846
0225,0225,Бл. 501 Ж.к. Дружба-2,42.6439741066,23.4122699162
0418,0418,Вма,42.6847323033,23.3020618321
6068,6068,Бялата Вода - По Желание,42.6432264394,23.2331054062
1998,1998,Ул. Княз Борис I,42.7047216747,23.3228384183
6456,6456,Ул. 6-ти Септември,42.694518366,23.3307973282
0104,0104,Баража Яз. Пасарел,42.5496244883,23.4715359118
0773,0773,Ул. Калояново,42.6701592424,23.2571413325
1999,1999,Ул. Княз Борис I,42.7053911446,23.3221639726
2236,2236,Ул. Хоризонт,42.7376418791,23.3366216774
2373,2373,Метростанция Бизнес Парк,42.6306248338,23.373281283
1399,1399,Попова Махала,42.4936313334,23.3765919477
1321,1321,Пл. Сточна Гара,42.7044227229,23.3305530643
0803,0803,Ж.к. Банишора,42.7063988067,23.3073394448
1214,1214,Разклона За Волуяк,42.7751086165,23.2504988698
2420,2420,Ул. Пловдив,42.7087933883,23.2996693085
1434,1434,Разклона За Летището,42.7072540965,23.4105644361
2365,2365,Читалище Д. Чинтулов,42.662300534,23.3453709342
2681,2681,Хипермаркет Била,42.7204719478,23.2553851393
6220,6220,Централна Гара,42.7107555425,23.3190826281
1295,1295,Пл. Руски Паметник,42.6927603456,23.3099766234
0849,0849,Кв. Карпузица,42.6681668211,23.2409580283
1306,1306,Пл. Ручей,42.6765290069,23.2971568234
1505,1505,Моста На Суходолска Река,42.7244725322,23.3245183732
0592,0592,Ж.к. Връбница-1,42.7349245912,23.2859758581
2227,2227,Ул. Хайдут Сидер,42.7086722482,23.2881287885
0236,0236,Метростанция Дружба,42.6608266428,23.3940490604
2621,2621,Ул. Крушата - По Желание,42.7928416548,23.3294349363
0272,0272,Бул. Акад. Ив. Гешов,42.6795879511,23.3035541755
0304,0304,Бул. Възкресение,42.6944819828,23.2930317642
2565,2565,Северна Промишлена Зона,42.7383899399,23.2583453472
314,314,Красно Село,42.6787802443,23.2840665969
1517,1517,Село Герман,42.6097283569,23.4104536778
1911,1911,Ул. Гоце Делчев,42.7127188073,23.2744794802
1237,1237,Паметника С. Доброславци,42.8219175982,23.286217282
1519,1519,Село Голяновци,42.8285512348,23.2391377759
2200,2200,Ул. Теменуга,42.8267817394,23.3534202542
1241,1241,Пл. Васил Левски,42.6981300557,23.3349770891
0216,0216,Бл. 43 Ж.к. Горубляне,42.6352768698,23.401026565
0807,0807,Кв. Бояна,42.6494087504,23.2644858433
1728,1728,Театър София,42.6960621293,23.3475500132
1914,1914,Ул. Граф Игнатиев,42.6864100511,23.3300278076
2140,2140,Ул. Промишлена,42.6898591457,23.2507923344
0663,0663,Ж.к. Младост-2,42.6449978883,23.3674226332
0729,0729,Зала Фестивална,42.6849180617,23.365095129
0295,0295,Бул. Вардар,42.695725313,23.2867528293
2417,2417,Бл. 226 Ж.к. Дружба-2,42.6541988057,23.4012669497
1216,1216,Разклона За Лифт Драгалевци,42.6222448929,23.3047556401
2469,2469,Толумска Махала - По Желание,42.5978881754,23.1621193341
0336,0336,Ул. Луи Пастьор,42.7132282705,23.2655769681
2196,2196,Бл. 13 Ж.к.западен Парк,42.7018244956,23.2816177045
2412,2412,Център Долни Лозен,42.6036337047,23.4940994903
6405,6405,Бул. Христо Ботев,42.6990618941,23.315129809
0009,0009,131-во Соу,42.6361000421,23.3804282562
0308,0308,Бул. Гоце Делчев,42.6717216452,23.2938531684
0153,0153,Бл. 264 Ж.к. Люлин-2,42.7277328008,23.2458640648
1818,1818,Ул. 9 - По Желание,42.6350157913,23.3539291107
0248,0248,Бл. 69 Ж.к. Младост-1,42.6490862794,23.3721701972
0560,0560,Ел. Кантон,42.7625564943,23.3995017217
6008,6008,Ул. Подп. Калитин,42.7111169883,23.3100356369
2070,2070,Ул. Оборище,42.6936282786,23.3554633795
2424,2424,Ж.к. Дружба -1,42.6543524582,23.4115188859
0386,0386,Уасг,42.6856826737,23.3306786699
2583,2583,Ул. Искърско Шосе,42.6627015808,23.4117037848
0436,0436,Ул. 12 - По Желание,42.605418291,23.3665556234
1076,1076,Моста Кв. Витоша,42.6554527233,23.3363215575
2660,2660,Метростанция Ломско Шосе,42.7396999202,23.2878281966
0447,0447,Ул. Йерусалим,42.6544176439,23.3727760139
0260,0260,Ул. Зелен Бор - По Желание,42.6065748337,23.3470288977
2482,2482,Ул. Витиня,42.709057148,23.3689465396
1297,1297,Пл. Руски Паметник,42.691712645,23.3112526607
1324,1324,Хотел Хемус,42.6784724098,23.3212042003
2606,2606,Ул. Любляна,42.6749599805,23.2631269503
6007,6007,Ул. Шумен,42.7091875669,23.3058583015
1252,1252,Западен Парк,42.7162158405,23.2851152826
1697,1697,Су Св.климент Охридски,42.6943033409,23.3354109397
1736,1736,Пг По Дизайн Елисавета Вазова,42.6805668449,23.3068193614
2218,2218,Кенди Оод - По Желание,42.7173024064,23.1834913039
0232,0232,Бл. 527 Ж.к. Овча Купел-1,42.6890351021,23.2546990098
2134,2134,Ул. Проф. Д. Атанасов,42.6748324071,23.290287695
0910,0910,Метростанция Витоша,42.6605985899,23.3170844359
2339,2339,Център Кв. Абдовица,42.6647903498,23.4230224319
2735,2735,Ул. 746 - По Желание,42.6954520975,23.2547820705
1386,1386,Подстанция Металургична - По Желание,42.7776608253,23.523581726
1623,1623,Стадиона Казичене,42.6648597218,23.4599896114
2733,2733,Пазар Малашевци,42.7185208349,23.3592159408
0996,0996,Къмпинга - По Желание,42.718957504,23.1763825051
2538,2538,Ул. Мальовица,42.826249571,23.3509105549
2838,2838,Кв. Симеоново,42.6120683023,23.3389254903
0144,0144,Бл. 162 Ж.к. Дружба-1,42.6573819655,23.4027513288
1962,1962,Ул. Искър,42.6995316907,23.3295709245
1848,1848,Ул. Буря,42.6690889991,23.2441124326
1167,1167,Овчарски Кошари,42.7278136234,23.1058607282
1409,1409,28-ми Пощенски Клон,42.6637746102,23.4112233115
0128,0128,Бл. 108 Ж.к. Дружба-1,42.668240151,23.3924226461
0779,0779,В.з. Симеоново-драгалевци,42.6225633874,23.3222879396
2600,2600,Ул. Ком,42.7199934201,23.3344367651
1020,1020,Магазин Метро 2,42.7460541179,23.2286274968
2027,2027,Ул. Ливадите - По Желание,42.8167414933,23.3739457767
