stop_id, stop_code, stop_name, stop_lat, stop_lon
6565,6565,Бялата Чешма,42.6459668992,23.2447244195
2234,2234,Ул. Хемус,42.6834499995,23.3539583206
19,19,Цариградско Шосе,42.6492279862,23.3940701803
0759,0759,Умбалсм Пирогов,42.6898533503,23.3061583201
0923,0923,Читалище Пенчо П. Славейков 1921,42.6706735574,23.3205179721
1593,1593,София Мед Ад,42.6593465784,23.4149534435
0756,0756,Инжстрой София Ад,42.7178800909,23.2917841867
2347,2347,Център Кв.филиповци,42.7196365198,23.2222306179
0074,0074,Бул. Пейо Яворов,42.6823310345,23.3488875357
0249,0249,Бл. 7 Ж.к. Хр. Смирненски,42.6836260963,23.3762219726
0244,0244,Бл. 630 Ж.к. Люлин 6,42.7087051237,23.2518034062
1419,1419,Простор,42.6955441276,23.244090793
1767,1767,Ул.акация,42.6491732373,23.2515606021
2148,2148,Ул. Проф. Иван Георгов,42.7250615542,23.3187854446
0205,0205,Мбал Токуда Болница,42.6675415405,23.3254431745
6088,6088,Ул. Тодор Каблешков,42.6696699778,23.2763499896
1696,1696,Ж.к. Изток,42.6715115198,23.3640521533
1567,1567,Пгсс,42.6795774612,23.2543824199
2004,2004,Ул.константин Бодин,42.7254501765,23.2917348459
2442,2442,Бл.119 Ж.к.обеля-1,42.7366752619,23.2721327903
0363,0363,Бул. Прага,42.6887988652,23.3147954364
2408,2408,Хипермаркет Практикер,42.6416533936,23.4090785585
0485,0485,Стоков Базар Илиянци,42.739798194,23.3092710546
0590,0590,Ж.к. Бъкстон,42.6752933502,23.2789833387
0636,0636,Ж.к. Красно Село,42.6791005082,23.2856129447
2200,2200,Ул. Теменуга,42.8267817394,23.3534202542
0840,0840,Кв. Иваняне,42.7062263122,23.1813151004
1091,1091,Моста За Резиденция Врана,42.6369227824,23.4200926044
1823,1823,Ул. Александър Жендов,42.6809549967,23.3565966606
1828,1828,Ул. Лазарополе,42.6636525799,23.2464177149
2657,2657,В.з. Бункера - По Желание,42.6092498243,23.3663929413
2861,2861,Ж.к. Гоце Делчев,42.6605316798,23.2973833402
1909,1909,Пл. Славейков,42.6913403426,23.3251215911
0604,0604,Ж.к. Дружба 1,42.6700658501,23.3982168657
0376,0376,Бул. Сливница,42.7049676496,23.3175517025
1980,1980,Ул. Кап. Димитър Списаревски,42.6727546815,23.3876700489
2782,2782,Ул. Могилата,42.6567695301,23.3268381738
1562,1562,Село Чепинци,42.7579170307,23.4257454933
0672,0672,Ж.к.мотописта,42.6692560608,23.2916983211
0777,0777,Ул. Инж. Георги Белов,42.6389833871,23.4059757555
1938,1938,Ул. Драва,42.7178180703,23.2178940081
1931,1931,Ул. Добротич,42.6934874706,23.2822328799
2572,2572,Метростанция Вардар,42.7060227284,23.2828607849
2624,2624,Резиденшъл Парк София,42.623139763,23.3710776839
1103,1103,Моста Чавдар,42.7004898927,23.345479688
1504,1504,Сба - По Желание,42.6195872687,23.4032767441
6637,6637,Ваклинови Кошари,42.5169733365,23.3472216606
211,211,Джеймс Баучер,42.6722434285,23.3212779658
0123,0123,Бл.22 Ж.к.дианабад,42.6582490479,23.3419960735
1664,1664,Начало С. Желява,42.7385247582,23.607193546
0814,0814,Кв. Бусманци,42.6754882776,23.4335033722
0854,0854,Кв. Кремиковци,42.7791679772,23.496432415
1676,1676,Начало С. Мрамор,42.7790121722,23.2741709026
2031,2031,Ул. Лиляче,42.687587284,23.2659454711
2113,2113,Ул. Пиротска,42.7000959287,23.3160633079
0121,0121,Бкс Средец,42.6795395425,23.3873843049
1385,1385,Бул. Илиянци - Подлеза,42.7191440618,23.3114144641
1375,1375,Разклона Кв. Кремиковци,42.7372001139,23.4692816295
1545,1545,Село Кътина,42.845204798,23.3191155628
1672,1672,Ул. Спортист - По Желание,42.7862296945,23.3072721182
0423,0423,Кв. Малинова Долина,42.6377916972,23.3533483187
1519,1519,Село Голяновци,42.8285512348,23.2391377759
0038,0038,53-то Оу,42.6771597252,23.2352073317
0389,0389,Бул. Цар Борис Iii,42.687415375,23.299716866
1061,1061,Метростанция Сливница,42.7263684588,23.2613042651
1714,1714,Моста На Сухата Река,42.6296224322,23.3333296571
0017,0017,20-ти Дкц,42.6709796221,23.2823598946
6214,6214,Ул.хан Кубрат,42.7271425742,23.289201862
0101,0101,Банята Панчарево,42.6026471417,23.4027779614
2480,2480,Балканстар,42.7099223379,23.3502567403
2789,2789,Ж.к. Хаджи Димитър,42.7105637622,23.3614367113
1921,1921,Ул. Даме Груев,42.6951032441,23.1207366704
1981,1981,Ул. Кап. В. Данаджиев,42.713844132,23.2456931304
0573,0573,Местност Елите,42.606879729,23.1763732708
0219,0219,Бл. 437 Ж.к. Младост 4,42.6308110979,23.3751488946
2117,2117,Ул. Подуенска,42.700768073,23.3514798195
2428,2428,Автостанция Изток,42.7038878653,23.3864790016
2677,2677,Бл. 245 Ж.к. Младост 2,42.6470418613,23.368046055
1271,1271,Площад Възраждане,42.6981450956,23.3151658976
0091,0091,Технотест,42.6782751766,23.3996256098
1854,1854,Ул.стар Беловодски Път,42.6477790786,23.2456239741
2616,2616,Спортна Зала Арена Армеец,42.6713007841,23.3705471755
1564,1564,Село Чепинци,42.7575536333,23.4257259701
1462,1462,Р-т Александрия,42.6859516745,23.4020427577
1486,1486,Рудника - По Желание,42.7672852679,23.5433092557
2834,2834,Разклона За С. Герман,42.6211064416,23.4202983306
0855,0855,Кв. Кремиковци,42.7789777225,23.4961238867
0983,0983,Ул. Врачанска,42.7719640559,23.4008040864
1822,1822,Ул. Алеко Константинов,42.696436037,23.3495201175
0138,0138,Бл.135 Ж.к. Люлин 10,42.7151102649,23.2764430084
2087,2087,Ул. Опълченска,42.7053827349,23.3134857162
2409,2409,Хипермаркет Практикер,42.6411727552,23.4098766729
2132,2132,Ул. Поручик Гр. Загорски,42.7178452947,23.2406074328
2156,2156,Ул. Ресенска Поляна,42.7094387926,23.3452164912
2744,2744,Ул.захари Зограф,42.7828302032,23.2738798706
0455,0455,Гара Казичене,42.6548820634,23.459510373
2526,2526,Пречиствателна Станция,42.7533872537,23.3532373789
2215,2215,Ул. Тодорини Кукли,42.7014414793,23.3598597624
1779,1779,Триъгълника Кв. Горубляне,42.6418598975,23.4027173534
0619,0619,Западен Парк,42.7014270122,23.2781815691
0771,0771,Институт Пушкаров,42.7344748482,23.2368208447
2786,2786,Ул. Сочи,42.7094997025,23.1343876111
2057,2057,Ул. Народно Хоро,42.6807633082,23.2694400152
0116,0116,Биомет Еоод - По Желание,42.8012299975,23.2642098331
0531,0531,Детски Дом Киноцентър,42.6424171137,23.289427756
0685,0685,Ж.к. Овча Купел 2,42.6825524309,23.2418535382
1329,1329,Централна Гара,42.7109973327,23.3202705936
2334,2334,Централни Хали,42.6998891656,23.3237741114
0488,0488,Промишлена Зона,42.6577369308,23.4259012547
0918,0918,Местност Манилов Дол,42.6988497993,23.1954277155
1203,1203,Опитна Станция,42.7450085284,23.3995836579
1850,1850,Ул. Бъдеще - По Желание,42.8111218385,23.3510233082
1313,1313,Пл. Сточна Гара,42.7043315038,23.3331572961
2326,2326,Хотел Плиска,42.6750221405,23.3591537954
0450,0450,Гара Волуяк,42.7568947858,23.2444036627
0365,0365,Бул. Прага,42.6892546212,23.3141666787
1449,1449,Разклона За Ап Дружба,42.6496388898,23.413713695
1629,1629,Бул. Кръстьо Пастухов,42.6684224743,23.4017231103
2505,2505,Ул. Хан Крум Кв. Максим Горки,42.7730497109,23.1851861792
2563,2563,Метродепо,42.7367679675,23.2583941405
1339,1339,Площад С. Волуяк,42.7739754745,23.24305554
1815,1815,Ул. 9,42.7428908717,23.268980232
0102,0102,Банята Панчарево,42.6028539015,23.402514023
2383,2383,Яз.суходол,42.7063244318,23.2303982808
1124,1124,Начало Кв. Гниляне,42.805215609,23.378422279
1518,1518,Село Голяновци,42.8286817544,23.2393690655
1615,1615,Стадион Г. Аспарухов,42.7076476018,23.3644447541
2244,2244,Ул. Цар Борис Iii,42.6541822309,23.46472763
2397,2397,Ж.к.люлин 8,42.7229518501,23.2617150777
2053,2053,Ул. Народен Герой,42.6743916829,23.2598833402
2300,2300,Ханчето,42.6267133077,23.3586466789
0657,0657,Ж.к. Люлин 5,42.7164763752,23.2376656201
1350,1350,Мост На Симеоновска Река,42.6190277316,23.3336777193
1115,1115,Национална Опера,42.6983018892,23.3309541068
1408,1408,Поща Кв.курило - По Желание,42.8211896846,23.3540619759
1482,1482,Ул.детелина,42.7182602,23.2276186073
2611,2611,Ул. Могилка,42.8226485918,23.278061269
0794,0794,Кариерата - По Желание,42.7702554269,23.5386498037
2351,2351,Техническа Библиотека,42.6645042582,23.3607109547
2727,2727,Център Кв. Видните,42.6593440463,23.4537266521
6819,6819,Ул. Маестро Атанасов,42.6275966644,23.3139733315
2577,2577,Ул.бели Дунав,42.7333620158,23.2882873834
0513,0513,Автосервиз,42.7138943051,23.3574428024
1795,1795,Ул.3,42.7131523141,23.4029360841
2362,2362,Пл. Витоша,42.7561410263,23.4297515541
6158,6158,Метростанция Вардар,42.7063120746,23.2840712068
1600,1600,Спи Проф. П. Мутафчиев,42.7077777429,23.4134686596
2499,2499,Ул. Кало,42.6020080687,23.174114863
1478,1478,Мост С. Долни Богров,42.7040934945,23.4925935546
1971,1971,Ул. Йосиф Щросмайер,42.7118011812,23.3001518518
1566,1566,Пгсс,42.6800733566,23.2546483358
1025,1025,Махала Иваняне,42.7164194705,23.1784484013
1278,1278,Пл. Лъвов Мост,42.7044970073,23.3249869577
0500,0500,Горублянско Ханче,42.6382841562,23.4124515709
1691,1691,Унсс,42.6524130727,23.3474400841
2359,2359,Ул. Ралица,42.603293337,23.4746363747
6436,6436,Пл. Княз Александър I,42.6965080785,23.3262459306
0621,0621,Гара Захарна Фабрика,42.711251353,23.2890981565
1361,1361,Махала Чемерник,42.5261230263,23.3680827262
2633,2633,Ул. Радивоя,42.7820884125,23.498570607
14,14,Александър Малинов,42.6468541375,23.3761336511
1037,1037,Стадиона Герман,42.6179383596,23.4178933462
2157,2157,Ул. Ресенска Поляна,42.7096091955,23.3453144334
1007,1007,Лифта,42.5484292451,23.3619893626
1624,1624,В.з. Китката,42.5721149302,23.4324006672
1283,1283,Пл. Македония,42.6948424565,23.3169514031
2260,2260,Райска Градина,42.6609397635,23.2490210197
6240,6240,Метростанция Обеля,42.742295359,23.2777682543
0090,0090,Технотест,42.6772528234,23.3979737035
1,1,Сливница,42.7266073031,23.2614824462
1364,1364,Ул. Цар Иван Асен Іі,42.5786733894,23.4155163392
1894,1894,Ул. Ген. Никола Генев,42.7162361517,23.2683173507
2781,2781,Зоопарка,42.6576874702,23.3279820566
2658,2658,Ул.христо Силянов,42.7317952943,23.2955587022
2370,2370,Църквата Св. Георги,42.696739772,23.2229625628
2533,2533,Шолц България - По Желание,42.7553348956,23.491351604
0374,0374,Модна Къща Агресия,42.7267038931,23.3133479773
1135,1135,Ндк,42.6858407185,23.3177226874
0866,0866,Кв. Манастирски Ливади,42.6567961405,23.2844334494
1618,1618,Стадион Банкя,42.7116303624,23.1582576862
0174,0174,Бл. 25 Ж.к. Овча Купел 2,42.6888833364,23.2427933375
2272,2272,90-то Соу,42.7267718704,23.2527706073
0431,0431,В.з. Банкя,42.6964672069,23.1494209088
7,7,Сердика,42.6977940926,23.3213577584
1830,1830,Ул. Атанас Узунов,42.6907948521,23.3637654025
2050,2050,Ул. Монтевидео,42.6715199788,23.2518383344
1106,1106,Мотел Божур,42.7468253099,23.2258703921
1757,1757,Толева Махала,42.7493152078,23.2214582762
6279,6279,Ул. Георги Измирлиев,42.6634266535,23.2915816625
0119,0119,109 Оу,42.6901724263,23.370185877
0562,0562,Махала Елата,42.5012345328,23.3721902784
0323,0323,Бул. Княгиня Мария Луиза,42.712182939,23.3149258405
2037,2037,Ул. Любляна,42.6749716441,23.2638816675
0242,0242,Бл. 620 Люлин 6,42.7086472814,23.2483516494
1778,1778,Кв. Триъгълника,42.7197265554,23.3091842883
1359,1359,Кариерни Материали Ад,42.7522835751,23.4204639486
2469,2469,Толумска Махала - По Желание,42.5978881754,23.1621193341
1583,1583,Бул. Владимир Вазов,42.7054706891,23.4007273333
2172,2172,Ул. Синчец,42.6064045836,23.4700320094
0563,0563,Махала Елата,42.5010223605,23.3722537024
6347,6347,Ул. Ученическа,42.7124440783,23.1517236249
1269,1269,Площад Възраждане,42.6973060422,23.3148745898
0167,0167,Бл. 222 Ж.к. Младост 2,42.6443688179,23.3744755951
1429,1429,Разклона За С. Герман,42.6362066905,23.4262350082
2038,2038,Ул. Люботрън,42.6687408032,23.3193515965
1200,1200,Ул. Връх Манчо,42.7216947176,23.2815931439
2331,2331,Царева Махала,42.5244967804,23.3601733829
2121,2121,Ул. Поп Богомил,42.703440171,23.3289846087
1397,1397,Висше Училище По Телекомуникации И Пощи,42.6562154193,23.3496109561
2323,2323,Хотел Горна Баня,42.6766528729,23.2385653001
1490,1490,Румънско Посолство,42.6853896242,23.3509117897
1692,1692,Унсс,42.6518492463,23.3487286836
1243,1243,Кв. Панчарево,42.5963334458,23.4132635004
1128,1128,Начало С. Кътина,42.8408601061,23.3238358957
2344,2344,Център С. Подгумер,42.8028620378,23.4028178119
2415,2415,Ул. Младост - По Желание,42.7999763725,23.4008634777
1560,1560,Кв.челопечене,42.7318192652,23.4758803053
2530,2530,Разклона За Кв. Сеславци,42.7803273342,23.5151434874
1434,1434,Разклон За Летището,42.7072540965,23.4105644361
2151,2151,Ул. Равнец - По Желание,42.7895468675,23.3299503856
1027,1027,Махала Иваняне,42.720144589,23.1821659459
6405,6405,Бул. Христо Ботев,42.6990889578,23.3151404792
2101,2101,Ул. Охрид,42.7098664214,23.3139290999
0751,0751,Зск Кремиковци Ад,42.7579559561,23.4870161254
1167,1167,Овчарски Кошари,42.7278136234,23.1058607282
0351,0351,Бул. Овча Купел,42.6831151456,23.2705348424
2265,2265,Уникални Конструкции - По Желание,42.7592381386,23.4868512927
1575,1575,Сепарациятя - По Желание,42.8286288009,23.3415954984
0564,0564,Балканкар Ад,42.6850800751,23.2750254242
0652,0652,Ж.к. Люлин 3,42.7205227807,23.2425686579
1346,1346,Мост На Симеоновска Река,42.6186345158,23.3340907206
2011,2011,Ул. Костенски Водопад,42.6670942151,23.3004213807
2831,2831,192-ро Соу С. Бистрица,42.5834139633,23.359201058
1321,1321,Пл. Сточна Гара,42.7044227229,23.3305530643
0008,0008,131-во Соу,42.6347319171,23.3801858159
2077,2077,Ул. Одрин,42.7021561588,23.3045554659
1287,1287,Пл. Орлов Мост,42.689337378,23.3389001392
1381,1381,Начало С. Иваняне - По Желание,42.7098342786,23.1853829925
1884,1884,Ул. Възрожденска,42.7234770724,23.3007063219
2116,2116,Надлез Надежда,42.714003265,23.3081000746
6431,6431,Тихия Кът,42.6381240297,23.2197371902
6432,6432,Тихия Кът,42.6381764287,23.2197511221
0265,0265,Боянско Ханче,42.6454968409,23.2681161375
1311,1311,Площад Сточна Гара,42.7050587196,23.3309237046
2714,2714,Кошарите,42.6609655983,23.2099831733
0385,0385,Бул. Христо Ботев,42.705021683,23.3186491974
0502,0502,Център Банкя,42.7071706872,23.1482497698
2279,2279,64-то Оу,42.6161384405,23.3374813888
2724,2724,Промишлена Зона Ж.к. Дружба 1,42.6711071755,23.3822299403
0218,0218,Бл. 43 Ж.к. Младост 1,42.6525172406,23.3799340828
2182,2182,Ул. Ст. Доспевски,42.7102582441,23.3861518798
2544,2544,Ул. Лесновска Река,42.7809179841,23.3923206139
2726,2726,Езерото С. Казичене,42.6578968097,23.4547843813
1605,1605,Нпмг Акад. Л. Чакалов,42.6686705849,23.3301214393
0011,0011,14-ти Дкц,42.6788389024,23.3105412463
0234,0234,Метростанция Ал. Малинов,42.6482729345,23.3757220667
0212,0212,Търговски Център Овча Купел,42.6903763412,23.2537506557
0006,0006,12-ти Дкц,42.719239963,23.2682942933
1380,1380,Начало С.иваняне - По Желание,42.7097371997,23.185403146
1708,1708,Пазар Овча Купел,42.6838445334,23.2417541843
1743,1743,Технически Университет,42.6574349721,23.3592450142
2755,2755,Метростанция Витоша,42.6589899699,23.3155116717
0493,0493,Институт По Ортопедия,42.6718588845,23.2430485983
0965,0965,Ул. Странджа,42.7099590093,23.1399505378
1770,1770,Ул.акация,42.6490585097,23.2515482139
1882,1882,Ул. Владайско Въстание,42.6544957997,23.228863369
0761,0761,Нсбал По Онкология,42.662489474,23.3586257132
1622,1622,Стадион Казичене,42.664678201,23.4601035877
0022,0022,Онкологичен Диспансер,42.6548841728,23.3701774265
0108,0108,Бл. 539 Ж.к. Люлин 5,42.7110135251,23.2425386509
0451,0451,Гара Захарна Фабрика,42.7127332755,23.2928228412
2262,2262,Ул. Юрий Гагарин,42.7328125656,23.5538372244
2417,2417,Бл. 226 Ж.к. Дружба 2,42.6541988057,23.4012669497
1310,1310,Пл. Сред Село,42.6610823953,23.2434440297
0031,0031,36-то Соу,42.6743089568,23.2872074272
1753,1753,Ул. Витиня,42.7084247657,23.3696384415
1406,1406,28-ми Пощенски Клон,42.6636180568,23.4125219829
2356,2356,Ул. Одеса,42.7255390211,23.3443330648
2093,2093,Ул. Орион,42.7170883121,23.2795121308
0737,0737,Зеленчукова Градина,42.7502777357,23.3992139486
2041,2041,Ул. Макгахан,42.7030376028,23.3512330847
6457,6457,Ул. Париж,42.6948521064,23.3303730428
0791,0791,Кантона,42.487422204,23.3833972742
0749,0749,Зоопарка,42.6582526721,23.3284920819
1758,1758,Толева Махала,42.7499902491,23.2204287295
0221,0221,Бл.458 Ж.к.надежда 4,42.7376138062,23.2967305763
0620,0620,Ж.к. Западен Парк,42.7015947945,23.2765450203
1840,1840,Ул. Бесарабия,42.7067553261,23.3738664396
1766,1766,Ул. Тракийска Могила,42.7835449804,23.3945370193
1295,1295,Пл. Руски Паметник,42.6927603456,23.3099766234
1098,1098,Моста На Р. Искър,42.7090998745,23.418360224
1959,1959,Ул. Илия Бешков,42.662157563,23.4048751551
0346,0346,Бул. Никола Петков,42.6693099503,23.2556576174
0377,0377,Бул. Сливница,42.7060933431,23.3176049868
0650,0650,Ж.к. Люлин 1 2,42.729583385,23.2470527681
1277,1277,Пл. Лъвов Мост,42.7045003218,23.3237772371
0436,0436,Ул. 12-та,42.605418291,23.3665556234
0393,0393,Бул. Цар Борис Iii,42.6863283157,23.3001299858
0706,0706,Бул. Вардар,42.702222958,23.286005291
2647,2647,Бул. Проф. Цв. Лазаров,42.6752495157,23.3820222487
0529,0529,Детски Дом - По Желание,42.7964161134,23.3397233428
2539,2539,Ул. Мальовица,42.8262011387,23.3507000079
2342,2342,Център По Хигиена,42.6826320503,23.3017168429
1299,1299,Пл. Руски Паметник,42.6917016983,23.30964667
0429,0429,В.з. Бояна,42.6448658355,23.2783407633
1521,1521,Село Горни Богров,42.7181515189,23.5292854867
2491,2491,Метростанция Бизнес Парк,42.6281652316,23.3734733651
1948,1948,Ул. Зографски Манастир,42.706693063,23.2921940689
0112,0112,Бетонов Възел Казичене,42.6650742932,23.4528256649
2694,2694,Магистрала Хемус,42.7086826179,23.4574452872
2208,2208,Ул. Тодор Каблешков,42.6686316812,23.2764356747
1801,1801,Ул. Иван Андонов,42.6573293012,23.3101721834
1832,1832,Ул. Баба Тонка - По Желание,42.8152377556,23.3521127357
2158,2158,Ул. Рилска Обител,42.7015312458,23.3789164721
1248,1248,Парк Св.св. Петър И Павел,42.6963437056,23.2960343697
2604,2604,Ул. Искър Божурище,42.7677158441,23.1939114638
2785,2785,4 Рспбзн,42.6568139044,23.3191263753
0547,0547,Бул. Рожен,42.7308753415,23.3133858393
1835,1835,Ул.байкал,42.648291862,23.264255602
2627,2627,Гробищен Парк Кремиковци - По Желание,42.7802454888,23.5121802968
0639,0639,Ж.к. Красно Село,42.6788199743,23.284950002
1307,1307,Площад Света Неделя,42.6964262714,23.3209435853
0937,0937,Кметство Железница,42.5337164024,23.3660976397
1067,1067,Мината,42.5954845304,23.3642868649
1456,1456,Разклон За Кв. Драгалевци,42.6422612051,23.3115809225
1139,1139,Национален Дворец На Културата,42.6859317453,23.319371764
0349,0349,Бул. Никола Петков,42.6649474911,23.2597372829
2638,2638,156-то Оу,42.784783626,23.5051061057
2313,2313,Хлебозавода,42.6603432377,23.3207173022
1217,1217,Разклона За Лифт Драгалевци,42.6223093492,23.3042504672
1358,1358,Кариерни Материали Ад,42.75275525,23.4210212545
2485,2485,Софгеопроучване,42.7435223208,23.3295277194
0279,0279,Бул. Ал. Пушкин,42.6598301759,23.2655679041
2028,2028,Ул.ливадите - По Желание,42.8169178329,23.3738733508
0345,0345,Бул. Никола Петков,42.6687247104,23.2541140611
1199,1199,Ул. Връх Манчо,42.7215103578,23.2803629138
1388,1388,Бл. 11 Ж.к. Люлин 1,42.7310855861,23.2487018416
1576,1576,Сепарацията - По Желание,42.828910878,23.3412383444
0160,0160,Бл.206 Ж.к. Дружба 2,42.6555881696,23.3989822297
6408,6408,Метростанция Опълченска,42.6997257723,23.3106785938
0063,0063,Станция Орландовци,42.7157298106,23.3425159977
0829,0829,Кв. Горна Баня,42.6757162882,23.2286050548
0691,0691,Ж.к. Хаджи Димитър,42.710856444,23.3615767938
1466,1466,Резиденция Врана,42.6346184673,23.4358503708
2306,2306,Хипермаркет Била,42.7204000853,23.2556693398
0132,0132,Бл. 111 Ж.к. Обеля 1,42.7379615658,23.2708971534
1395,1395,Българска Телеграфна Агенция,42.68594591,23.3442609499
1210,1210,Моста На Банишка Река,42.6182733421,23.3579896628
2163,2163,Ж.к. Красна Поляна,42.6971211458,23.2772413018
0577,0577,Бул. Христофор Колумб,42.6646149329,23.3899059743
1114,1114,Надлез Надежда,42.7148619678,23.3118620435
1431,1431,Разклон За С. Гурмазово,42.7264505934,23.2145764633
1608,1608,Ск На Нса,42.6440642779,23.3534336727
2112,2112,Ул. Пиротска,42.7003233592,23.316048336
1023,1023,Махала Джюлници,42.7664648843,23.243650502
2376,2376,Шлаков Цех,42.7366645209,23.55398068
2723,2723,Промишлена Зона - Ул. Васил Левски,42.7578422885,23.2754754739
0014,0014,163-то Оу,42.6453680144,23.404928335
0933,0933,Кметство Балша,42.8486161352,23.2693333612
2678,2678,Бл. 245 Ж.к. Младост 2,42.6464181025,23.3680556762
2743,2743,Ул.захари Зограф,42.7826386335,23.2737794103
6430,6430,Метростанция Княгиня Мария Луиза,42.7138410759,23.3131426036
1863,1863,Ул. Васил Кънчев,42.705268606,23.3598074645
6217,6217,Ул. Царевец - Временна,42.7297970811,23.2930958236
1492,1492,Румънско Посолство,42.6854788494,23.349946833
2777,2777,Мбал Токуда Болница,42.6670949936,23.3267316818
1936,1936,Ул. Дойран,42.6783501544,23.2907048655
0398,0398,Бул. Черни Връх,42.6830688425,23.3221472268
1533,1533,Село Житен,42.8188148736,23.2508631792
1949,1949,Ул. Зографски Манастир,42.7062796223,23.2931569637
0183,0183,Бл.3 Ж.к. Ботунец 1,42.7359645633,23.5127957053
0141,0141,Бл. 155 Ж.к. Дружба 1,42.6578850254,23.397913346
2136,2136,Бул. Гоце Делчев,42.6754286125,23.2879679183
0991,0991,Кулинарен К-т Пейфил,42.6391303198,23.3978171157
2433,2433,Бул.брюксел,42.6636792899,23.3891140219
0122,0122,Бл. 1 Ж.к. Горубляне,42.6352420115,23.4040736616
2220,2220,Ул.търново,42.7224705259,23.2620257904
1316,1316,Пл. Сточна Гара,42.7042800337,23.3344896443
1097,1097,Моста На Р. Искър,42.7087818303,23.4190403756
1953,1953,Ул. Иван Кралича,42.7367853978,23.3392410179
1994,1994,Ул. Клокотница,42.7086239857,23.3182370257
0812,0812,Метростанция Мизия,42.6822716395,23.255371666
1344,1344,Пк Спартак,42.6754665515,23.3147282756
0211,0211,Търговски Център Овча Купел,42.6904243741,23.2551793842
1548,1548,Село Мало Бучино,42.6820792691,23.1599826379
1632,1632,Бул. Кръстьо Пастухов,42.6677607541,23.4028039143
0741,0741,Зимен Дворец На Спорта,42.6445761354,23.3419238086
2541,2541,Ул. Любляна,42.6753408542,23.2650553813
0097,0097,Нц По Рехабилитация,42.676934979,23.268028658
1577,1577,Тюф,42.6763135097,23.4009858015
2696,2696,Разклона За Драгалевски Манастир,42.6199401895,23.2973613422
2842,2842,Ул. Милениум,42.7110066732,23.1770500024
0764,0764,Нсбал По Онкология,42.6626533508,23.3581583341
2340,2340,Център С. Войнеговци,42.8018149662,23.422442847
1610,1610,Спортна Зала Хр. Ботев,42.6511100925,23.3422282089
0856,0856,Кв. Кумарица - По Желание,42.8008450133,23.3413888996
0595,0595,Ж.к.гео Милев,42.6765883174,23.3698604761
0048,0048,Авторемонтна База,42.6260631737,23.4463589377
1156,1156,Ул. Гюешево,42.6923199972,23.2956450144
1497,1497,Самоковско Шосе,42.6355609238,23.4070937678
0660,0660,Ж.к. Левски-г,42.7118753712,23.3799676997
1681,1681,Ул.прилеп,42.6968902928,23.2179776183
1993,1993,Ул. Клокотница,42.7082221579,23.3181045668
0267,0267,Боянско Ханче,42.6465714472,23.26712149
1181,1181,Околовръстен Път,42.6959807525,23.2296322837
0180,0180,Бл. 28 Ж.к. Левски Г,42.7132714884,23.3849592922
0653,0653,Ж.к. Люлин 3,42.7209486696,23.2420793713
0783,0783,Ул.асен Йорданов,42.6534752786,23.3160159873
0224,0224,Бл. 465 Ж.к. Младост 4,42.6287351127,23.3830710822
0580,0580,Ж.к. Борово,42.6690464808,23.2797512772
1195,1195,Умбал Св. Анна,42.6619277665,23.3751833649
0517,0517,Депо Искър,42.654487967,23.4111336094
0412,0412,В.з. Киноцентър,42.6378159106,23.2973623256
0719,0719,Ну По Танцово Изкуство,42.6784149806,23.3654783249
1648,1648,Махала Батареята,42.7095949185,23.4240996935
2410,2410,Ул. Пролет,42.6305568189,23.1940511688
0391,0391,Бул. Цар Борис Iii,42.6654343347,23.2608161103
0506,0506,Гребна База,42.5975864525,23.4066442008
2780,2780,Метростанция Витоша,42.6575357789,23.3162933053
0395,0395,Бул. Черни Връх,42.6831266792,23.3198583407
1275,1275,Пл. Лъвов Мост,42.7050852558,23.3254221059
0907,0907,Пътен Възел Филиповци,42.7179253398,23.2340516249
6035,6035,Автостанция Княжево,42.659004785,23.2417584207
0270,0270,Бул. Акад. Ив. Гешов,42.678580293,23.3024991029
1325,1325,Хотел Хемус,42.6783525831,23.3206043785
0233,0233,Метростанция Ал. Малинов,42.6484154991,23.375889138
1794,1794,Ул.3,42.7130770879,23.4029256285
2105,2105,Ул. Охрид,42.7087494134,23.3131713168
2720,2720,В.з. Люлин,42.6523651949,23.1921602323
0410,0410,Бл. 4 Ж.к. Сухата Река,42.6995846737,23.3673340865
0757,0757,Инжстрой София Ад,42.7182252932,23.291657125
1803,1803,Ул.5,42.6353339763,23.3000090971
0438,0438,Края На С. Мрамор,42.7887596816,23.2724797401
0882,0882,Кв. Овча Купел,42.6722404617,23.2720602073
1996,1996,Пл. Гарибалди,42.6937668849,23.3227390321
0040,0040,60-то Оу Кв. Бенковски,42.7418563433,23.3452879591
2746,2746,Складова База - Чепинско Шосе,42.7314228601,23.3864873821
0178,0178,Бл. 255 Ж.к. Дружба 2,42.6518591396,23.4048109853
0576,0576,София Тех Парк,42.6659239425,23.3716332451
0072,0072,Албена,42.5629784925,23.3634506886
0292,0292,Бул. Вардар,42.6959700267,23.2865766525
0889,0889,Кв. Павлово,42.6677740072,23.2656389721
1569,1569,Семинарията,42.6747934415,23.3338172859
1762,1762,Тпк Хемус,42.7341948905,23.3279334267
1918,1918,Метростанция Акад. А.т.балан,42.6408558356,23.3739388325
0120,0120,Бкс Средец,42.6793203237,23.3874703049
0658,0658,Хотел Амбасадор,42.6387737264,23.3342536394
1084,1084,Мостът,42.7195110216,23.0889172514
1421,1421,Птицефермата,42.7254916942,23.3737158847
1792,1792,Ул. 2,42.7429710132,23.272973079
0413,0413,В.з.киноцентър,42.6369692108,23.297830789
6019,6019,Бул.шипченски Проход,42.6791183472,23.3616566658
0724,0724,Ул. Поручик Хр. Топракчиев,42.6680919699,23.4130564069
1334,1334,Плажа Панчарево,42.5873115745,23.4202220521
1367,1367,По Желание,42.7943686001,23.4125005424
2440,2440,Мост На Р. Искър Кв. - Враждебна,42.7102614402,23.4188464518
0051,0051,Автостанция Банкя,42.7082360165,23.1522248065
1903,1903,Ул. Ген. Гурко,42.6905962556,23.3320875471
0881,0881,Кв. Овча Купел,42.6721233368,23.2719933192
2081,2081,Ул. Опълченска,42.7060249964,23.3129366557
1932,1932,Ул. Добротич,42.6930225329,23.2816464172
0045,0045,Ул. Пощенска,42.7217714778,23.3421350321
1580,1580,Бул. Владимир Вазов,42.7058659842,23.4004625843
1955,1955,Ул.иван Щерев,42.6903697058,23.371945376
6,6,Опълченска,42.6998069199,23.3104674788
1523,1523,Село Горни Лозен,42.6015007703,23.4829765103
1026,1026,Махала Иваняне,42.7164283146,23.1789440436
1178,1178,Околовръстен Път,42.6603541254,23.2651056335
0301,0301,Бул. Витоша,42.683736813,23.3147435706
1902,1902,Ул. Ген. Гурко,42.6897783637,23.3307901033
1596,1596,Ул.тинтява,42.7001359006,23.1497819689
0304,0304,Бул. Възкресение,42.6944819828,23.2930317642
2839,2839,Резиденшъл Парк София,42.6231702672,23.3724737176
0023,0023,Онкологичен Диспансер,42.6545950456,23.3690785873
0694,0694,Ж.к. Хиподрума,42.6830300013,23.2927099864
0094,0094,Нц По Рехабилитация,42.6762926641,23.2683118143
1866,1866,Ул. Велчо Атанасов,42.6967593869,23.3596732084
0970,0970,Корабчето,42.6426516851,23.4028600057
1499,1499,Начало С. Владая,42.6345269735,23.1956493935
2062,2062,Ул. Нишава,42.6699401558,23.3039075813
1669,1669,Ул. Липа,42.6862092362,23.1658253353
1704,1704,Магазин Витоша,42.7121577599,23.2471884737
2248,2248,Ул. Цар Симеон,42.7052783742,23.2978046937
0858,0858,Кв. Кумарица,42.8008951716,23.3403803338
0484,0484,Ул. Т. Каблешков,42.6621063136,23.2955746498
1034,1034,Умбал Александровска,42.6862748226,23.3082722564
2055,2055,Ул. Народно Хоро,42.6803066482,23.2690521648
2575,2575,Бул. Рожен,42.7318249787,23.3131055888
0261,0261,Боянска Църква,42.6442206703,23.266040742
2229,2229,Ул. Хайдут Сидер,42.7087672418,23.2869207386
0714,0714,Парка С. Кривина,42.6748701685,23.4650834058
1120,1120,Начало Кв.градоман,42.6893883371,23.1425950224
1306,1306,Пл. Ручей,42.6765290069,23.2971568234
2067,2067,Метростанция Овча Купел,42.6823251502,23.2706920479
2587,2587,Ул. Амстердам,42.6550862604,23.4077865235
0787,0787,Кантона,42.708790155,23.435885043
1665,1665,Ул. Цар Иван Шишман,42.5795634327,23.4182003545
6066,6066,Детски Стационар,42.6219154153,23.2261247811
0371,0371,Бул. Проф. Цв. Лазаров,42.6743424161,23.3805565468
2502,2502,Ул. Хан Тервел Кв. Максим Горки,42.7710019731,23.1887760271
2488,2488,Бл. 325 Ж.к. Младост 3,42.6346567003,23.3748763575
2395,2395,Бл. 480 Ж.к. Младост 4,42.6263624646,23.3823676699
0622,0622,Гара Захарна Фабрика,42.7117376596,23.2890282356
1153,1153,Ск На Цска,42.6749699669,23.3764814644
1709,1709,Търговски Комплекс Обеля,42.7423925849,23.2808161594
0617,0617,Лту,42.653137873,23.3596838582
0989,0989,Кулинарен К-т Пейфил,42.6386532058,23.3969158743
1724,1724,Театър София,42.6957283548,23.3465194253
1939,1939,Ул. Дунав,42.7078751517,23.3297345523
6281,6281,Католически Гробищен Парк,42.7154080097,23.3394973275
0035,0035,Кв. Гара Искър,42.6625855186,23.4148009843
2095,2095,Ул. Орфей,42.7607156505,23.4228447791
2452,2452,Рвд,42.6840223544,23.4092941721
0661,0661,Ж.к. Младост 1,42.6511896473,23.3679098591
1258,1258,Площад На Авиацията,42.6696602435,23.3685151403
2332,2332,Централен Гробищен Парк,42.7113685833,23.3369542706
1646,1646,Начало С. Войнеговци - По Желание,42.7987375776,23.4220473615
2691,2691,Тир Паркинг Мрамор - По Желание,42.7717158709,23.2745222314
0974,0974,София Мед Ад,42.658257952,23.4150543491
1539,1539,Село Кокаляне,42.5768417213,23.4145069011
2106,2106,Ул. Панайот Хитов,42.7037826345,23.3470331065
2689,2689,Ж.к. Бокар,42.6601066589,23.2854483287
2390,2390,Бизнес Парк София,42.6286469478,23.3751471119
1752,1752,Пп Успех,42.7322299879,23.2527078663
1917,1917,Метростанция Акад. А.т.балан,42.6419230766,23.3734001093
0716,0716,Спиидо Еоод,42.7205289596,23.285277964
0789,0789,Кантона,42.7217776543,23.1905818401
1349,1349,Начало Кв. Д. Миленков,42.6599188583,23.4233155627
2267,2267,Манастир Св. Никола,42.5546174608,23.4282949981
2824,2824,В.з. Малинова Долина,42.6173735045,23.3614699571
2838,2838,Кв. Симеоново,42.6120683023,23.3389254903
0556,0556,Дяволски Мост,42.5607958057,23.422788227
0892,0892,Кв. Павлово,42.6678764714,23.2659979802
1104,1104,Мотел Бели Брези,42.5248985335,23.36492111
2711,2711,Кантона,42.6709850026,23.2204590563
1877,1877,Яз. Суходол,42.7058329853,23.2302716418
2311,2311,Хладилен Завод,42.7082415814,23.3340879337
0768,0768,Институт По Черна Металургия - По Желание,42.7471566663,23.5090050878
1990,1990,Ул. Кирил Христов,42.769564671,23.3594229245
0144,0144,Бл. 162 Ж.к. Дружба 1,42.6573819655,23.4027513288
0929,0929,Читалище Д-р Петър Берон,42.6762468499,23.3087581686
1603,1603,В И К - Еад - София,42.6388029129,23.3917157595
2324,2324,Хотел Плиска,42.6760876987,23.3592612445
2792,2792,Разклона За Лифт Симеоново,42.6243716558,23.3497366587
0468,0468,Гара Подуяне,42.6960595643,23.3547678213
0522,0522,Ул. 10-ти Километър,42.6520831271,23.2222109301
1524,1524,Село Горни Лозен,42.6016638597,23.4828500144
2536,2536,Ул. Стара Планина,42.7871058482,23.5198892224
0084,0084,Комплекс На Бан,42.6537443633,23.3886847069
1004,1004,Летище Доброславци - По Желание,42.8182302231,23.313974484
2722,2722,Промишлена Зона - Ул. Васил Левски,42.7576436869,23.2753936381
1065,1065,Ул. 503,42.6934269245,23.3793713702
2776,2776,Пътен Възел Филиповци,42.7176490215,23.2340383846
1270,1270,Площад Възраждане,42.6974273165,23.3143044933
0388,0388,Бул. Цар Борис Ііі,42.6658263887,23.2591393788
1657,1657,Края С. Добровславци,42.8276031843,23.2847914752
1982,1982,Ул. Кап. В. Данаджиев,42.7145400738,23.2447016244
2264,2264,Уникални Конструкции - По Желание,42.7605947156,23.4876462207
0967,0967,Махала Коньовица,42.695674239,23.2604600013
1257,1257,Площад На Авиацията,42.6683357212,23.3672343552
2731,2731,Ул.родопски Извор,42.6667533239,23.2834583282
0551,0551,Стинд 2,42.7340196795,23.3283987691
2522,2522,Нова Махала - По Желание,42.6950848673,23.4457789907
1565,1565,Село Чепинци,42.7581113847,23.4255765401
2165,2165,Ул. Рояк,42.712316026,23.343659158
2191,2191,Ул. Стоян Михайловски,42.6718255064,23.3366753159
1536,1536,Село Житен,42.8182585009,23.2510456224
1869,1869,Ул. Витиня,42.7054821866,23.3696344877
6216,6216,Община Връбница,42.730942574,23.2866988639
0954,0954,Кметство Долни Богров,42.7000441386,23.4923565781
1986,1986,Ул. Кап. Д. Списаревски,42.6716361114,23.3868636717
2482,2482,Ул. Витиня,42.709057148,23.3689465396
1786,1786,С. Мърчаево - Толумска Махала,42.5944526601,23.160841841
1640,1640,Промишлена Зона Бусманци,42.6723831645,23.438856968
0864,0864,Ул. Бистришко Шосе,42.6246733348,23.3570366542
1571,1571,Семинарията,42.6760860918,23.3330541882
2299,2299,Търговски К-с Надежда,42.7265405619,23.3023719866
2353,2353,Нц По Радиобиология,42.6324000041,23.3547166824
2181,2181,Ул. Ст. Доспевски,42.7069793172,23.3827114862
2122,2122,Ул. Поп Богомил,42.703145035,23.3289144746
0019,0019,24-ти Дкц,42.7367815861,23.301642073
0027,0027,28-ми Дкц,42.665749077,23.4062984135
0627,0627,Ж.к. Дианабад,42.6652593861,23.3554200757
2164,2164,Ул. Рояк,42.7133762332,23.3428101628
202,202,Бели Дунав,42.7352029468,23.2931340246
0782,0782,В.з. Симеоново - Драгалевци,42.6229435999,23.3216305312
0790,0790,Кантона,42.7221277669,23.1926051815
0951,0951,Кметство Село Яна,42.7311730348,23.5578852145
2084,2084,Ул. Опълченска,42.6986575149,23.3089043467
0851,0851,Кв. Княжево,42.6585882942,23.2413538128
0786,0786,Ул. Асен Йорданов,42.6524677612,23.3158854346
0688,0688,Ж.к. Слатина,42.6813349391,23.3723647405
0142,0142,Бл. 155 Ж.к. Дружба 1,42.6580432295,23.3974223528
2257,2257,Ул. Цветна Градина,42.6328028721,23.4090382677
1330,1330,Пл. Централна Гара,42.7109274458,23.318960956
1131,1131,Начало С. Мърчаево,42.6111893847,23.1795952111
2695,2695,Магистрала Хемус,42.7070236222,23.4593613108
6719,6719,Студентски Град,42.6472066879,23.3456133207
2662,2662,Метростанция Хан Кубрат,42.7225324086,23.3071642843
6617,6617,Махала Лъката,42.5213433266,23.3551933289
2310,2310,Хладилен Завод,42.7087356402,23.3345840014
1582,1582,Разклон За Кв. Враждебна,42.7092732505,23.3999190573
0442,0442,Военна Академия,42.6924306417,23.3438540971
0600,0600,Ж.к. Гоце Делчев,42.6600402095,23.2978617393
0676,0676,Община Връбница,42.7302202327,23.2869072941
0811,0811,В.з. Беловодски Път,42.6499910866,23.2483902447
1516,1516,Село Войнеговци,42.8039556296,23.4228707776
0153,0153,Бл.264 Ж.к. Люлин 2,42.7277328008,23.2458640648
0308,0308,Бул. Гоце Делчев,42.6717216452,23.2938531684
0776,0776,Ул. Калояново,42.6703513531,23.257868244
0926,0926,Кино Одеон,42.6881566366,23.3278299967
2284,2284,152-ро Оу,42.6035527199,23.1757767451
0032,0032,36-то Соу,42.6734814456,23.2859331064
0499,0499,Горублянско Ханче,42.6387736971,23.4121933191
0964,0964,Ул. Странджа,42.7099334464,23.1404799806
1102,1102,Моста Чавдар,42.7004677543,23.3460460351
0076,0076,Анева Чешма,42.5398805413,23.3646712811
2173,2173,Ул. Синчец,42.6063428773,23.4699918757
212,212,Витоша,42.6593042579,23.3164587798
0788,0788,Кантона,42.7084909827,23.4359654635
2192,2192,Ул. Стефан Пешев,42.6664148723,23.2440477889
0163,0163,Бл.207 Ж.к. Обеля 2,42.7460911612,23.2702945635
1440,1440,Махала Япаджа,42.7098822396,23.4314971935
0635,0635,Ж.к. Красна Поляна,42.6908716838,23.278306675
2578,2578,102-ро Оу,42.7359377841,23.3050307947
1416,1416,Ул. Мала Кория,42.6510705358,23.2192676564
1465,1465,Ним,42.6573250472,23.2734931669
6178,6178,Ул. Кап.д. Списаревски,42.672803291,23.3880891064
0861,0861,Южен Парк,42.6589151872,23.3062970983
0638,0638,Ж.к. Красно Село,42.6784427839,23.284139872
2374,2374,Метростанция Бизнес Парк,42.6299380298,23.374134446
6429,6429,Бистришко Шосе,42.6165647257,23.3646382185
0253,0253,Бл. 715 Ж.к. Люлин 7,42.7147730476,23.2601330407
0647,0647,Пк Спартак,42.6755459399,23.31500977
0404,0404,Булавто,42.7455228131,23.3302525622
1983,1983,Ул. Кап. Д. Списаревски,42.6732934243,23.3862884477
1300,1300,Пл. Руски Паметник,42.693094082,23.3100306711
1867,1867,Ул. Велчо Атанасов,42.696068914,23.3615736576
0820,0820,Кв. Видните,42.6586566221,23.4581183846
0565,0565,Балканкар Ад,42.6866486871,23.2749806344
1754,1754,Ул. Витиня,42.7087586598,23.3691788388
1759,1759,115-ти Пощенски Клон,42.6324549511,23.3804182826
0366,0366,Бул. Прага,42.6891006765,23.3133019893
0496,0496,Горско Стопанство,42.7709354848,23.4392016848
2848,2848,Национална Футболна База,42.6547933578,23.2779616674
0865,0865,Ул. Бистришко Шосе,42.6242428646,23.3564923697
1715,1715,Община Люлин,42.715069462,23.2504566185
0018,0018,24-ти Дкц,42.7369919315,23.301040336
2857,2857,Метростанция Витоша,42.6568300247,23.3173033396
1357,1357,По Желание,42.7413708688,23.5552568777
0808,0808,Кв. Бояна,42.6494940532,23.2635275079
6575,6575,Първа Българска Армия,42.7127995292,23.3438904225
1015,1015,Ж.к. Дървеница,42.6508349737,23.3586366653
0325,0325,Бул. К. Величков,42.7069918688,23.2999782167
2150,2150,Ул. Равнец - По Желание,42.7895490955,23.3306590018
2401,2401,Ул. Васил Левски,42.6005890345,23.4961603279
1324,1324,Хотел Хемус,42.6784724098,23.3212042003
1073,1073,Младежки Театър,42.6980880712,23.3258986451
0686,0686,Ж.к. Свобода,42.7388070281,23.3032212753
0273,0273,Бул. Акад. Ив. Гешов,42.6870233536,23.3004766782
0469,0469,Гара Подуяне,42.6969655963,23.3536578098
0589,0589,Ж.к. Бъкстон,42.6751866659,23.2786516825
2000,2000,Ул. Козлодуй,42.706899237,23.3237711134
0479,0479,Гара Яна,42.7268667621,23.5552601446
1417,1417,Ул. Мала Кория,42.6513511188,23.2198507116
1035,1035,Умбал Александровска,42.6858642612,23.3063075025
2075,2075,Ул. Одрин,42.6994415096,23.3038901622
1085,1085,Моста На Р.стубела,42.6959379834,23.2394853938
0731,0731,Заслон Синаница,42.5581732838,23.4501617567
1599,1599,Балкан Стар,42.710917626,23.3513310965
1719,1719,Община Люлин,42.7165348628,23.249881545
2464,2464,Ул. Мак,42.6761106494,23.2320657107
0608,0608,Ж.к. Дружба 1,42.6707210555,23.397204348
2039,2039,Ул. Люботрън,42.6685207113,23.3192742839
1961,1961,Ул.индира Ганди,42.7095885748,23.2599649745
0103,0103,Баража Яз. Пасарел,42.5496160059,23.471265629
0956,0956,Община Нови Искър - По Желание,42.8031144959,23.3441899823
2155,2155,Ул. Резбарска,42.7104246063,23.3547655426
2355,2355,Ул. Одеса,42.7258705492,23.3446083133
2625,2625,Бизнес Парк София,42.6240768761,23.3699440982
0151,0151,Бл.20 Ж.к.свобода,42.7397427946,23.3052838231
1687,1687,Моста На Лесновска Река,42.733340777,23.4660544407
2650,2650,Ул. Рачо Петков-казанждията,42.6219327367,23.3697800832
1940,1940,Ул. Дунав,42.7078507862,23.3294232345
1680,1680,Начало С. Подгумер - По Желание,42.7975957707,23.3978894125
2389,2389,Бл. 442 Ж.к. Младост 4,42.6306233151,23.3781276211
0281,0281,Бул. Ал. Стамболийски,42.7027650715,23.2858187054
1808,1808,Ул. 6-ти Септември,42.6848593077,23.325287271
0348,0348,Бул. Никола Петков,42.6651247575,23.2600979699
0727,0727,Заг Динамик Ад,42.7320821629,23.317220498
0817,0817,Кв. Вердикал,42.7196379281,23.1308840225
0539,0539,Модна Къща Агресия,42.7277038303,23.3125967534
2320,2320,Хотел Макси,42.6417350612,23.3345626319
2710,2710,Кантона,42.6707756779,23.2202919116
309,309,Патриарх Евтимий,42.6881178162,23.3273253711
0454,0454,Гара Иваняне,42.7170240059,23.1703914957
1702,1702,Промишлена Зона Казичене,42.6680781165,23.4470268874
0146,0146,Бл. 170 Ж.к. Дружба 1,42.6557361013,23.4072944313
1403,1403,Ул. Хисаря,42.7093286329,23.1536234506
2180,2180,Ул. Ст. Доспевски,42.7075141294,23.3833026193
1771,1771,Трд,42.7536974437,23.2732147941
1817,1817,Ул. 9,42.7429624086,23.269981179
1975,1975,Ул. Калиманци,42.689982963,23.3535874644
0139,0139,Бл.15 Ж.к. Хр. Смирненски,42.6811040368,23.3750989837
2065,2065,Хит Маркет Люлин,42.7312299303,23.2666549082
2603,2603,Пътен Възел Калотина,42.7754615304,23.18109927
1253,1253,Западен Парк,42.7149864406,23.2840337
0300,0300,Бул. Васил Левски,42.6879924544,23.329106942
0482,0482,Ул. Синчец,42.7819431826,23.3841603897
2826,2826,Бул. Витоша,42.6949663633,23.3200976832
2206,2206,Ул. Тодор Каблешков,42.6649616877,23.2873433431
1796,1796,Ул. Демокрация,42.6840296537,23.1637058807
2628,2628,Гробищен Парк Кремиковци - По Желание,42.7803670887,23.5118165914
1288,1288,Пл. Орлов Мост,42.689723894,23.3388643221
1254,1254,Пета Градска Болница,42.7134118355,23.3149851306
0107,0107,Гробищен Парк Банкя,42.7145782177,23.1656601626
2829,2829,Бул. Княгиня Мария Луиза,42.7121533076,23.3181083361
1050,1050,Метростанция К. Величков,42.7017865148,23.2977191463
1302,1302,Пл. Ручей,42.6783687724,23.2978044881
1451,1451,Разклон За Летището,42.6715031467,23.3949980538
1833,1833,Ул.баевица,42.6489746738,23.2562462877
2741,2741,Метростанция Софийска Света Гора,42.6762205531,23.4098407116
2092,2092,Ул. Орион,42.7171333008,23.2782697497
2096,2096,Ул. Оряхово,42.710970719,23.2919917926
2168,2168,Ул. Сан Стефано,42.6964937372,23.3399157652
1461,1461,Разсадник Мало Бучино,42.689354549,23.174544107
2020,2020,Ул. Латинка,42.5816352868,23.4217946134
0100,0100,Банята Кв.гниляне,42.8002065327,23.3802111642
2079,2079,Ул. Опълченска,42.7125717571,23.3162713308
2538,2538,Ул. Мальовица,42.826249571,23.3509105549
315,315,Овча Купел,42.6836875166,23.269960787
2589,2589,Бул. Проф. Цв. Лазаров,42.6515880444,23.4058442749
0340,0340,Бул. Ген. Н. Столетов,42.7112164546,23.3094832239
1401,1401,Посолствата,42.6530788772,23.3678399306
0127,0127,Бл. 10 Ж.к. Левски Г,42.7130842707,23.3798004511
0581,0581,Кв. Манастирски Ливади - Запад,42.6620010902,23.284039854
2174,2174,Ул. Синята Скала,42.6558875943,23.2332213782
0263,0263,Гробищен Парк Бояна,42.6508347658,23.2790341117
0810,0810,В.з. Беловодски Път,42.649880522,23.2482162636
2225,2225,Ул. Ученическа,42.712336892,23.1505570357
0088,0088,База Газстрой - По Желание,42.7312706662,23.5722813616
1755,1755,Община Кремиковци,42.7362927678,23.4864379194
1985,1985,Ул. Кап. Д. Списаревски,42.668272649,23.3850916028
1538,1538,Село Казичене,42.662352554,23.4646395403
2519,2519,Ул. Просвета,42.7245051328,23.3162565243
2102,2102,Ул. Охрид,42.7084793982,23.3124989846
0130,0130,Бл. 11 Ж.к. Левски В,42.7097511142,23.3843710447
1481,1481,Ул. Китен,42.6253265561,23.1929551093
2110,2110,Ул. Нишава,42.6813433329,23.2896466573
0827,0827,Кв. Гниляне,42.808962668,23.376141153
1439,1439,Резиденция Бояна,42.6486246459,23.2703333205
2798,2798,Летищен Център София,42.6820232389,23.4010566186
1279,1279,Пл. Македония,42.6943499883,23.3146549861
0258,0258,Болницата С. Подгумер,42.8134022295,23.4077184865
2243,2243,Ул. Цар Борис Iii,42.6543262797,23.4648824047
0013,0013,140 Соу,42.7461657104,23.2747885215
0720,0720,Ну За Танцово Изкуство,42.678531379,23.3653238412
1238,1238,Паметник С.доброславци,42.8221025206,23.2856267535
1579,1579,Разклона За Кв. Враждебна,42.7092620015,23.3971129353
0283,0283,Бул. Ал. Стамболийски,42.6980153846,23.3094368313
0086,0086,Комплекс На Бан,42.6537177373,23.3892876612
2294,2294,Фохар Ад,42.6424896119,23.2858982263
1169,1169,Околовръстен Път,42.7181211097,23.2322864266
2411,2411,Ул. Пролет,42.630922661,23.1940162586
6407,6407,Метростанция Опълченска,42.700116794,23.30951777
0625,0625,Ж.к.иван Вазов,42.676733981,23.3047782665
0922,0922,Читалище Пенчо П. Славейков 1921,42.6704418469,23.3203209823
0498,0498,Горублянско Ханче,42.6377011899,23.4112297502
2765,2765,Кв. Република,42.7372786284,23.2431964199
0257,0257,Бл. 98 Ж.к. Дружба 1,42.6677911868,23.3863087746
2123,2123,Ул. Поп Груйо,42.7070785461,23.3801920019
1081,1081,Моста На Селска Река,42.7700027252,23.2418174928
1252,1252,Западен Парк,42.7162158405,23.2851152826
1677,1677,Ул. 19,42.6020145053,23.1659448738
6564,6564,Бул. България,42.6656683604,23.2869499842
1056,1056,Метростанция Люлин,42.7179836095,23.2562787128
0118,0118,109 Оу,42.6889545083,23.3707065195
2740,2740,Метростанция Дружба,42.6570999384,23.395032141
1304,1304,Площад Ручей,42.6769729189,23.2976386119
1897,1897,Ул. Ген. Никола Генев,42.718991299,23.262762155
0320,0320,Бул. Джавахарлал Неру,42.7156217931,23.2612353633
0303,0303,Метростанция Хаджи Димитър,42.7025108039,23.3523168883
1584,1584,Сервиз Полмо,42.729253001,23.3442349038
1318,1318,Пл. Сточна Гара,42.7058365089,23.3324835557
2115,2115,Надлез Надежда,42.7137431772,23.3058254477
1444,1444,Разклон Магистрала Хемус,42.7335227615,23.6052984731
1476,1476,Бл.6 Ж.к. Сухата Река,42.7000417864,23.3688561799
1483,1483,Мост На Сухата Река,42.6210126022,23.3272712945
1511,1511,Село Балша,42.8544984623,23.2643940576
0334,0334,Бул. Ломско Шосе,42.735969932,23.2940366256
2271,2271,129-то Оу,42.6939872667,23.3479979745
1064,1064,Ул. 503,42.6931015686,23.3800505711
2296,2296,Старата Фурна,42.842891152,23.3223820711
1134,1134,Ндк,42.6855962115,23.3172725572
2008,2008,Ул. Костенски Водопад,42.6661609341,23.2999020828
2566,2566,Ул. Андрей Германов,42.7377948786,23.2617085401
1879,1879,Ул. Вишнева,42.6784736864,23.3336878942
1372,1372,По Желание,42.5549751326,23.3644483453
1129,1129,Начало С. Кътина,42.8415590446,23.3234038143
1739,1739,Пг По Дизайн Елисавета Вазова,42.6808254362,23.3065323479
2255,2255,Ул. Цветна Градина,42.6340588238,23.4096624613
0852,0852,Кв.княжево,42.6589462122,23.2419220112
0890,0890,Кв. Павлово,42.6671149764,23.2662529425
1069,1069,Мината,42.8321560035,23.3339078163
0260,0260,Ул. Зелен Бор,42.6065805423,23.3470139337
0805,0805,Кв. Бенковски,42.7449284357,23.3479108137
0844,0844,Кв. Изгрев,42.7153871595,23.1725785437
1194,1194,Умбал Св. Анна,42.6626478134,23.376438429
0222,0222,Бул. 458 Ж.к. Надежда 4,42.7375321481,23.2984575222
2108,2108,Метростанция Хаджи Димитър,42.7029804657,23.352230732
1474,1474,Ресторант Златната Рибка,42.561096125,23.4516832265
2063,2063,Ул. Нишава,42.6693197873,23.3036102646
2371,2371,Църквата Св. Георги,42.696666744,23.2239320847
2739,2739,Метростанция Дружба,42.6581622976,23.3936421671
1074,1074,Младежки Театър,42.6988158907,23.3267844255
1727,1727,Театър София,42.6962274536,23.3459456164
1643,1643,Ул. Ручей,42.7182038611,23.1339312845
1340,1340,Площад С. Волуяк,42.7734273442,23.2428270131
2449,2449,Ж.к.магнолия - По Желание,42.6487481644,23.2426713845
0082,0082,Ул.н.хрелков,42.6875286257,23.2322072352
2298,2298,Търговски К-с Надежда,42.7264558106,23.3027271891
1658,1658,Езерото,42.7060820488,23.4737404098
0487,0487,86-ти Пощенски Клон,42.6147621922,23.4154708479
0534,0534,Детски Ясли,42.6487063632,23.3416853294
1095,1095,Моста На Владайска Река,42.7164044047,23.3523466421
0317,0317,Бул. Д-р Г.м. Димитров,42.660341854,23.3473542712
2327,2327,Хотел Плиска,42.6755579727,23.3588933149
2005,2005,Ул.константин Бодин,42.7249062145,23.2922606664
1087,1087,Моста На Кв. Витоша,42.6548275166,23.3360801474
0375,0375,Модна Къща Агресия,42.7267904281,23.3130932662
0919,0919,Кв. Кръстова Вада,42.6478646731,23.3148626163
0959,0959,Кметство Иваняне,42.7077862475,23.1827819362
1645,1645,Промишлена Зона- По Желание,42.7192041137,23.4432461885
6089,6089,Метростанция Мизия,42.6838059211,23.2569768132
2250,2250,Ул. Цар Симеон,42.7052740101,23.2986409749
1905,1905,Ул. Гео Милев,42.6821830601,23.3624847566
2048,2048,Ул. Космонавт,42.7124892627,23.1657096372
0520,0520,Депо Искър,42.6560556858,23.4145383162
1736,1736,Пг По Дизайн Елисавета Вазова,42.6805668449,23.3068193614
1186,1186,Околовръстен Път - По Желание,42.7791062229,23.3133341141
2451,2451,Ресторант Александрия,42.685526628,23.4032872728
0846,0846,Кв. Изгрев - По Желание,42.8199616408,23.3728052962
2790,2790,Метростанция Софийска Света Гора,42.6765150382,23.4104953364
1488,1488,Бл. 405 Ж.к. Дружба 2,42.6423565878,23.4072142567
0342,0342,Бул. Никола Вапцаров,42.6643914741,23.3174791057
0159,0159,Бл.206 Ж.к.дружба 2,42.6550831635,23.3995760495
1472,1472,Воденичарски Механи,42.622765652,23.3092371816
1247,1247,Парк Св. Св. Петър И Павел,42.6966811832,23.2962388784
0239,0239,Бл. 603 Ж.к. Връбница 2,42.7387020633,23.2946224213
0432,0432,В.з. Банкя,42.6962085725,23.1493235002
1145,1145,Нова Враждебна,42.6914360608,23.4477523263
1788,1788,Търговски Център Люлин,42.7185600949,23.2534577298
0684,0684,Ж.к. Овча Купел 2,42.6830716451,23.2435433388
0382,0382,Бул. Христо Ботев,42.7057613701,23.3168798065
210,210,Европейски Съюз,42.6785434458,23.3217902312
0137,0137,Бл. 115 Ж.к. Люлин 10,42.716629439,23.2755516044
1453,1453,Разклон За Летището,42.6717942938,23.3930655775
2734,2734,Ул. 746 - По Желание,42.6953571792,23.2551444454
6695,6695,Гробищен Парк Драгалвци - Временна,42.6342266719,23.3103549957
0384,0384,Бул. Христо Ботев,42.7002755136,23.3156774701
0338,0338,Бул. Мадрид,42.6962860765,23.3517504162
1021,1021,Манастир Св.мина,42.7534310077,23.3617482533
1763,1763,Пгхмбт Проф.п.райков,42.7323219153,23.3122249123
1789,1789,Търговски Център Люлин,42.7180544476,23.2533998486
1934,1934,Ул. Добротич,42.6926983018,23.2808299762
2146,2146,Ул. Проф. Вайганд,42.6961521316,23.280918383
2665,2665,Централна Автогара,42.7094901621,23.3220358327
0494,0494,Републикански Невродиспансер,42.6666081845,23.3642896367
0572,0572,Местност Елите,42.6073768057,23.1769888883
1433,1433,Ул. Родина,42.7081596888,23.1300451606
0197,0197,Бл. 350 Ж.к. Люлин 3,42.7258687345,23.2445954858
0909,0909,Метростанция Витоша,42.6603266398,23.3182533264
0096,0096,Нц По Рехабилитация,42.6765475586,23.2680929549
0802,0802,Кв. Абдовица,42.6636573256,23.4280317994
2275,2275,153-та Гимназия,42.7357965304,23.3103940888
2486,2486,Бл. 323 Ж.к. Младост 3,42.6387945772,23.3748582996
2126,2126,Ул. Поп Груйо,42.7023843645,23.3817705497
2372,2372,Дом На Културата Искър,42.6648917391,23.3993776506
2484,2484,Софгеопроучване,42.7431430393,23.3292835215
0399,0399,Хотел Хилтън,42.6820046039,23.3209472781
1653,1653,Промишлена Зона Горни Лозен,42.6136448159,23.461336815
1930,1930,Ул. Димитър Пешев,42.6404144203,23.4130954165
1698,1698,Су. Св. Климент Охридски,42.6947217748,23.334657671
0664,0664,Ж.к. Младост 2,42.6449249903,23.3671683311
2366,2366,Читалище Д. Чинтулов,42.663269436,23.3447476672
0003,0003,Бл. 411 Ж.к. Младост 4,42.6369660032,23.3803745906
2443,2443,Бл.119 Ж.к. Обеля 1,42.7377249757,23.2734139641
0781,0781,Каваците,42.719744469,23.5354361019
2099,2099,Ул. Освобождение,42.6944539493,23.2926513386
1030,1030,Ул. Монтевидео,42.6954136186,23.2520622617
0329,0329,Бул. Ломско Шосе,42.7325547855,23.296596075
2186,2186,Ул. Стара Планина,42.8509606171,23.26691561
2398,2398,Бл. 539 Ж.к. Люлин 5,42.7113499959,23.2419816653
0053,0053,Автостанция Гео Милев,42.6775150299,23.3705400149
0140,0140,Бл.15 Ж.к.хр.смирненски,42.6817331133,23.3754577894
1809,1809,Ул. 605,42.7145244901,23.2537797693
1718,1718,Община Люлин,42.7163991382,23.2516103468
1979,1979,Ул. Кап. Димитър Списаревски,42.6726735443,23.3878824819
1289,1289,Пл. Орлов Мост,42.6903054022,23.3363953509
1534,1534,Село Житен,42.8185986489,23.2512096656
1668,1668,Ул. Веско Веселинов,42.790314549,23.4450994401
2027,2027,Ул.ливадите - По Желание,42.8167414933,23.3739457767
2273,2273,144-то Соу,42.643401997,23.3795740529
0780,0780,Каваците,42.7200907424,23.5347198201
0175,0175,Бл. 25 Ж.к. Овча Купел 2,42.6888200124,23.2419850032
1984,1984,Ул. Кап. Д. Списаревски,42.6674044725,23.3855844206
2350,2350,Начало С. Житен,42.8112855653,23.2561307756
1207,1207,Опитна Станция,42.6225980063,23.4504360101
0530,0530,Детски Дом,42.6536725202,23.3443996988
1473,1473,Ресторант Златната Рибка,42.5612760437,23.4517447165
0009,0009,131-во Соу,42.6361000421,23.3804282562
0715,0715,Спиидо Еоод,42.7212078224,23.2847353174
0921,0921,Ул. Чепинско Шосе,42.7233408105,23.3691334013
1172,1172,Околовръстен Път,42.6319553391,23.3335022219
1459,1459,Разклон За Кв. Симеоново,42.6329589759,23.3332391558
6599,6599,Бл. 28 Ж.к. Левски Г,42.7132839045,23.3842984255
0804,0804,Ж.к. Банишора,42.7058326971,23.3073524981
1798,1798,Ул. 308,42.7185372545,23.2464934367
0544,0544,Ритекс Ад,42.6649496641,23.4618826709
0299,0299,Бул. Васил Левски,42.688255303,23.3287063109
1442,1442,Хайдушки Чукар,42.5968332333,23.3548744481
1890,1890,Ул. Ген. Асен Николов,42.7207982182,23.2652618735
1107,1107,Бл.703 Ж.к. Люлин 7,42.7099808968,23.265114451
1480,1480,Ул. Китен,42.625676112,23.1928350589
6710,6710,Автостанция Гео Милев,42.6779150009,23.3700683276
0527,0527,Детски Дом,42.6740066081,23.4308730811
1436,1436,Работилницата,42.697815194,23.4437991921
1508,1508,Чешмата,42.5760663746,23.3591760037
2597,2597,Ж.к.водолей,42.6401150802,23.3118856282
0164,0164,Бл. 214 Ж.к. Борово,42.6691033099,23.2801481908
1274,1274,Пл. Журналист,42.6815069242,23.3317619919
0845,0845,Кв. Изгрев,42.7156234623,23.1720582341
1413,1413,Пречиствателна Станция,42.6137630156,23.3636919271
1614,1614,Стадион Г. Аспарухов,42.7032035032,23.3642393664
1919,1919,Метростанция Акад. А.т.балан,42.6405425391,23.3721745129
6640,6640,Село Казичене,42.6621899923,23.4645799955
0203,0203,Бл. 39 Ж.к. Горубляне,42.6343046717,23.3989579822
1239,1239,Паметник С. Доброславци,42.8222607137,23.2860859905
1262,1262,Петте Могили,42.7331525581,23.3901320502
0876,0876,Кв. Овча Купел,42.6719033559,23.2732666651
0899,0899,Кв. Симеоново,42.6123149255,23.3389286917
1051,1051,Метростанция К. Величков,42.7014427793,23.2975439786
0614,0614,Лту,42.6533366521,23.359860007
1952,1952,Ул. Иван Кралича,42.7372022382,23.3403378361
2025,2025,Ул.лешникова Гора,42.630675806,23.3063913955
0328,0328,Бул. К. Величков,42.7066899284,23.299918737
0666,0666,Ж.к. Младост 3,42.6388311101,23.3861398641
0944,0944,Община Младост,42.641513163,23.3813393478
6567,6567,Златните Мостове,42.6097336716,23.2357432499
2280,2280,61-во Оу,42.7379515437,23.2902897458
2338,2338,Център Кв. Абдовица,42.6644539407,23.4235395873
2514,2514,Ул. Гергана,42.7830777633,23.5187400895
1232,1232,Център С. Кривина,42.6803737809,23.4642414712
1901,1901,Ул. Ген. Никола Жеков,42.7341123997,23.3086186977
2276,2276,144-то Соу,42.6447599239,23.3787171868
2707,2707,Ул. Обзор,42.6758956273,23.2319608011
0255,0255,Бл. 89 Ж.к. Дружба 1,42.6707890285,23.3864825827
1127,1127,Начало Кв. Клисура,42.7203962496,23.0966334501
0477,0477,Гара София Север,42.7264584055,23.3153105161
0512,0512,Читалище Св.св. Кирил И Методий,42.7224485985,23.2697200253
1611,1611,Спортна Зала Хр. Ботев,42.6518716087,23.3425173333
1543,1543,С.ело Кубратово,42.7730638558,23.362788619
2687,2687,Околовръстен Път,42.7574128604,23.269393068
0269,0269,Бул. Акад. И. Е. Гешов,42.6800415219,23.302507293
1326,1326,Ул. Клокотница,42.7084183375,23.3180716515
0821,0821,Кв. Витоша,42.6515057246,23.3358760928
0439,0439,Края На С. Мрамор,42.7885251162,23.2727354902
1520,1520,Село Горни Богров,42.7175583203,23.5286860939
0095,0095,Нц По Рехабилитация,42.6769425665,23.2674137615
1678,1678,Ул. 19,42.6021333337,23.1657981211
1846,1846,Ул. Боян Магесник,42.6941013852,23.366295045
1328,1328,Централна Гара,42.7106233597,23.3185566584
1776,1776,Кв. Триъгълника,42.7193397096,23.3092280408
0145,0145,Бл. 162 Ж.к. Дружба 1,42.6581225193,23.4021742313
1373,1373,По Желание,42.5560896851,23.3649088697
1686,1686,Промишлена Зона,42.7314200248,23.228607336
0696,0696,Гара Чепинци,42.765501177,23.4343481147
0357,0357,Бул. Пенчо Славейков,42.6837607396,23.3155549473
1119,1119,Начало Кв.градоман,42.6892956447,23.1425928416
6276,6276,Ул. Г.измирлиев,42.6628957999,23.2921775151
2379,2379,Южен Парк,42.6750103455,23.3079146774
6453,6453,Метростанция Вардар,42.7055545003,23.2858194087
2607,2607,Ул. Народен Герой,42.6743249893,23.2588616689
0152,0152,Бл.264 Ж.к. Люлин 2,42.7280097465,23.2462811558
1060,1060,Метростанция Сливница,42.7262568912,23.2627905665
1725,1725,Театър София,42.6968005603,23.3472385009
2297,2297,Старата Фурна,42.8431447885,23.322123578
2649,2649,Местност Камбаните,42.6229818415,23.3754608118
1487,1487,Бл. 405 Ж.к. Дружба 2,42.6426279415,23.4068845715
0651,0651,Жк. Люлин 3,42.7217804755,23.2413802239
1042,1042,Металснаб Холдинг,42.741082622,23.3284813475
0744,0744,Софарма Ад,42.7358272252,23.3174849066
0417,0417,Всу Л. Каравелов,42.6951856812,23.248272814
2315,2315,Хлебозавод Ботунец,42.7373940157,23.5105122926
10,10,Жолио Кюри,42.6714596774,23.3507855163
6616,6616,Ж.к. Младост-1,42.6506272048,23.3676885385
1865,1865,Ул. Велчо Атанасов,42.6964191582,23.3600619708
2548,2548,Автобаза Искър,42.677817047,23.3895601551
15,15,Александър Теодоров-балан,42.6413487399,23.3729929632
0525,0525,Детски Дом,42.6736913541,23.4303032119
0895,0895,Кв. Република,42.7368276178,23.2429367905
1130,1130,Начало С. Мърчаево,42.6113668693,23.1797545069
1744,1744,Ул. Подпор. Йордан Тодоров,42.6726869974,23.4062715652
0149,0149,148 Соу,42.6851836445,23.3718582685
0578,0578,Бул. Христофор Колумб,42.6629062999,23.3915322513
1689,1689,Моста На Лесновска Река,42.7326259617,23.4664711957
1784,1784,Трънска Махала,42.6688167389,23.4253262227
0555,0555,Държавна Печатница,42.65686731,23.3851985807
1528,1528,Село Долни Пасарел,42.5415355871,23.4979826139
2270,2270,129-то Оу,42.6939748904,23.3475346707
2430,2430,Ж.к. Левски Г,42.7121711831,23.380224591
2343,2343,Център По Хигиена,42.6818248153,23.3014845397
0507,0507,Гробищен Парк Негован,42.7668237552,23.4088060943
6156,6156,Ул.луи Пастьор,42.7134200445,23.2661724948
2141,2141,Ул. Промишлена,42.6896483103,23.2483966668
0545,0545,Промишлена Зона Кривина,42.6697522552,23.4642353518
1814,1814,Ул. 640,42.6803120407,23.246044779
1926,1926,Ул. Димитър Петков,42.6999500275,23.3003616651
2456,2456,Стоков Базар Илиянци,42.7407132472,23.3178381143
2779,2779,Аджибадем Сити Клиник,42.6639733632,23.3255783399
0383,0383,Бул. Христо Ботев,42.700166143,23.3164153472
0185,0185,Бл. 301 Ж.к. Люлин 3,42.7233208739,23.2481316187
1470,1470,Бл.4 Ж.к. Сухата Река,42.6993166642,23.3648243865
0870,0870,Ул. Топлика,42.69015414,23.1191187763
1162,1162,117-то Соу,42.7577040684,23.5554351792
1756,1756,Община Кремиковци,42.7360658866,23.4865044963
2236,2236,Ул. Хоризонт,42.7376545474,23.336600899
2283,2283,152-ро Оу,42.6032479079,23.1754807712
0973,0973,Корията,42.632558314,23.4272683462
0229,0229,Бл. 519 Ж.к. Овча Купел 1,42.6896579946,23.2598517891
2498,2498,Ул. Кало,42.6020758329,23.1742540187
1266,1266,Пл. Биримирци,42.737974645,23.343297894
1764,1764,Пгхмбт Проф.п.райков,42.7324857343,23.3121064064
0928,0928,Читалище Д-р Петър Берон,42.6761404639,23.3090557216
0990,0990,Кулинарен К-т Пейфил,42.6387873098,23.3974382615
0900,0900,Ул. Любляна,42.6748008805,23.2642660425
2808,2808,Ул.република,42.7236859693,23.3041742022
0871,0871,Кв. Обеля,42.742703098,23.265678681
2821,2821,Метростанция Хаджи Димитър,42.7026640144,23.3537459121
0355,0355,Бул. Пенчо Славейков,42.6873803622,23.3108051059
1185,1185,Околовръстен Път - По Желание,42.7796793597,23.3129864336
1477,1477,Ул. Детелина,42.7183375352,23.2279055523
1666,1666,Ул. Цар Иван Шишман,42.5795914177,23.4180603687
1804,1804,Ул. 507,42.6920436719,23.3828176863
1859,1859,Ул. Бяло Море,42.7018585291,23.3392631081
0418,0418,Вма,42.6847323033,23.3020618321
1094,1094,Моста На Владайска Река,42.7166763863,23.3519304677
1202,1202,Опитна Станция,42.6219292755,23.4511205125
0718,0718,Котлостроене Ад,42.7186069434,23.3164071938
0940,0940,Кметство Казичене,42.6597349098,23.4648022912
1432,1432,Ул.родина,42.7082802559,23.1305040786
1942,1942,Ул. Стара Планина,42.7117287651,23.144348705
0165,0165,Бл. 214 Ж.к. Борово,42.6688088326,23.2796319058
2176,2176,Ул. Снежник,42.7214793343,23.3316825242
0644,0644,Ж.к. Лагера,42.6850016912,23.2968350093
1294,1294,Пл. Пирдоп,42.6991962386,23.3607397026
1426,1426,Разклон За С. Герман,42.6358424396,23.4267350507
2730,2730,Ул. Родопски Извор,42.6671483358,23.2828066508
2098,2098,Ул. Освобождение,42.6945167827,23.2922785853
1895,1895,Ул. Ген. Никола Генев,42.7158435284,23.2677400501
1697,1697,Су Св. Климент Охридски,42.6943033409,23.3354109397
2302,2302,Ханчето,42.707382548,23.5196119676
1057,1057,Метростанция Люлин,42.7185072445,23.2572873813
0860,0860,Южен Парк,42.6601431849,23.3055568728
1469,1469,Бл.4 Ж.к. Сухата Река,42.6990706956,23.3652821502
2161,2161,Ул. Рилска Обител,42.7014888986,23.3768548929
1716,1716,Община Люлин,42.7164254227,23.2504430057
1819,1819,Ул. Александър Жендов,42.6777464286,23.3558251763
0859,0859,Кв. Кумарица - По Желание,42.7999404823,23.3409884508
1390,1390,Ул. Венера,42.6944665276,23.1480240425
1551,1551,Село Мрамор,42.7858319173,23.2736028773
0411,0411,Бл. 4 Ж.к. Сухата Река,42.6993468702,23.3657590385
1215,1215,Разклона За Волуяк,42.7750559433,23.2501969022
6459,6459,Метростанция Сердика,42.6981897165,23.3199929548
2308,2308,Хиподрума Банкя,42.7226711998,23.2006989832
2672,2672,Гара София Север,42.7267633637,23.3160837635
1780,1780,Триъгълника Кв. Горубляне,42.641972282,23.4027547698
1813,1813,Ул. 640,42.6810899273,23.2447817975
0880,0880,Кв. Овча Купел,42.671442247466,23.272177728186
1997,1997,Пл. Гарибалди,42.6943302297,23.3224185939
1343,1343,Пк Диана,42.6651747844,23.3428693091
0052,0052,Автостанция Гео Милев,42.6780550003,23.3703766823
0948,0948,Кметство Световрачане,42.7824450416,23.3877174673
0911,0911,Метростанция Витоша,42.6600949808,23.3170874573
0897,0897,Кв. Сеславци,42.7830691539,23.5176461172
2212,2212,Ул.т.каблешков,42.6646638089,23.2872948306
0115,0115,Бетонов Възел - По Желание,42.7363813273,23.32484822
1174,1174,Околовръстен Път,42.6230190711,23.4050448875
2791,2791,Разклона За Лифт Симеоново,42.6245183309,23.3494799932
2097,2097,Ул. Оряхово,42.7103201917,23.2928036504
2162,2162,Ж.к. Красна Поляна,42.6973333925,23.2772074861
2860,2860,Ул. Кишинев,42.6605950038,23.3167550087
0453,0453,Гара Иваняне,42.7170478244,23.1700848924
1627,1627,Старата Чешма - По Желание,42.8120534558,23.377316766
1650,1650,Начало С. Голяновци,42.8259884858,23.2423957117
2571,2571,Бл. 38 Ж.к.западен Парк,42.7035787465,23.2833884407
1423,1423,Първа Градска Болница,42.6895328877,23.323391343
0612,0612,Ж.к. Дружба 2,42.6397589196,23.4162876899
6454,6454,Метростанция Сердика,42.6979242731,23.3202521511
0473,0473,Гара Подуяне,42.6968614432,23.3556050676
1291,1291,Пл. Пирдоп,42.6991804409,23.3612175832
2508,2508,Бл. 60 Студентски Град,42.6430422369,23.3400359214
2632,2632,Ул.вишновка - По Желание,42.7921872099,23.3103987491
2059,2059,Ул. Николай Коперник,42.6792510298,23.3615194113
0475,0475,Гара Руднична - По Желание,42.7677930045,23.4928898422
1682,1682,Ул.прилеп,42.6969943932,23.2187105508
0206,0206,Мбал Токуда Болница,42.667773361,23.327131945
2207,2207,Ул. Тодор Каблешков,42.6701502147,23.2769309379
6213,6213,Ж.к.дружба 2 (ул. Обиколна),42.6484807014,23.4041554015
0906,0906,Кв. Требич - По Желание,42.7753651104,23.3155288435
1644,1644,Промишлена Зона- По Желание,42.7189354477,23.4433903173
1296,1296,Пл. Руски Паметник,42.6915548675,23.31115219
6241,6241,Метростанция Обеля,42.742219115,23.2776409483
1366,1366,По Желание,42.7943557363,23.4122993038
2384,2384,Яз.мало Бучино,42.6970486163,23.191254729
2455,2455,Летище София Терминал 2,42.6879291634,23.4133161509
1198,1198,Умбал Св. Анна - Ухо,42.6601737338,23.3740436041
0945,0945,Община Младост,42.6410672269,23.3837280832
6821,6821,Ул. Панайот Пипков,42.6287416458,23.3163666725
1012,1012,Ж.к. Дървеница,42.6502883275,23.3577633222
0729,0729,Зала Фестивална,42.6849180617,23.365095129
2584,2584,Ул. Мюнхен,42.6602647018,23.410536791
0985,0985,Края На Селото,42.8217475561,23.2477825717
1654,1654,Промишлена Зона,42.7294994034,23.3824311151
0315,0315,Бул.д-р Г.м.димитров,42.6588929508,23.3449785082
2424,2424,Ж.к. Дружба 1,42.6537183126,23.4134466807
0272,0272,Бул. Акад. Ив. Гешов,42.6795879511,23.3035541755
0092,0092,31-во Сучем,42.6873725011,23.3524575994
1151,1151,Ск Цска,42.6744216918,23.3752399352
0467,0467,Гара Подуяне,42.6975480341,23.3544490097
0739,0739,Зеленчукова Градина,42.743893462,23.4087071625
0752,0752,М-тел,42.7165081427,23.296064164
1912,1912,Ул. Гоце Делчев,42.7125552583,23.2738657338
2022,2022,Автостанция Изток,42.7030131823,23.3860270763
0637,0637,Ж.к. Красно Село,42.6781859743,23.2854411365
0904,0904,Кв. Славовци - По Желание,42.7917656212,23.334533823
0386,0386,Уасг,42.6856826737,23.3306786699
0891,0891,Кв. Павлово,42.6677776587,23.2657319758
1236,1236,Център Кв. Ботунец,42.7397206858,23.5117994052
2134,2134,Ул. Проф. Д. Атанасов,42.6748324071,23.290287695
1264,1264,Пл. Ал. Невски,42.6965301909,23.330267309
0633,0633,Ж.к. Красна Поляна,42.6911199915,23.2791782019
0982,0982,Края На Кв. Михайлово,42.685169423,23.1197500231
1338,1338,Пл. Кв. Враждебна,42.7132462456,23.4183980528
1561,1561,Кв.челопечене,42.7315436429,23.4763441328
1639,1639,Края С. Бистрица,42.5784174629,23.3595705226
2692,2692,Ул. Стоян Михайловски,42.6730595435,23.3368838807
1929,1929,Ул. Димитър Пешев,42.6403065086,23.4129997222
0857,0857,Кв. Кумарица,42.8010937743,23.340252806
1019,1019,Магазин Метро 2,42.74487215,23.2296374054
2125,2125,Ж.к. Левски-в,42.7098223905,23.3778322039
2630,2630,Мировско Шосе - По Желание,42.7833972553,23.3096289604
314,314,Красно Село,42.6787802443,23.2840665969
0799,0799,Каучуков Завод Зебра - По Желание,42.8207800526,23.3664506645
1342,1342,Пк Диана,42.6662447984,23.3422450454
2757,2757,Ул. Димитър Ашов,42.6563808475,23.4653772589
0067,0067,Нбу,42.676544418,23.2532277542
1101,1101,Моста На Р. Искър Кв. Абдовица,42.6654186924,23.4221154649
1141,1141,Нестле София,42.7297646221,23.2568238252
6569,6569,Бялата Чешма,42.645928738,23.2452840011
1092,1092,Моста Кв. Враждебна,42.7118211717,23.4081262759
2840,2840,Златните Мостове,42.6102106497,23.2372238751
1633,1633,Хюндай България,42.7440397157,23.3180064224
1240,1240,Център С. Кривина,42.6806515076,23.4640540947
2756,2756,Метростанция Витоша,42.6578364876,23.316035059
1122,1122,Ул. Минзухар,42.8150636711,23.2531605553
0823,0823,Кв. Враждебна,42.7124578458,23.412232378
0816,0816,Кв. Бусманци,42.6756782704,23.4334809024
2138,2138,Ул. Пробуда,42.7375879571,23.3271990596
2833,2833,Разклона За С. Герман,42.6210366427,23.4201205814
1108,1108,Бл.703 Ж.к. Люлин 7,42.7100124749,23.2659527114
1415,1415,Пречиствателна Станция,42.7533373294,23.3523593086
2190,2190,Ул. Стоян Михайловски,42.6724289283,23.3355486856
2817,2817,Ул. Ботевградско Шосе,42.7272453486,23.5570858114
1160,1160,Металика Оод,42.7384822967,23.5162726438
6653,6653,Гара Обеля - Временна,42.7388733546,23.2646933397
0575,0575,Енергопроект,42.6730004455,23.3236198649
1410,1410,28-ми Пощенски Клон,42.6639090447,23.4109616878
0728,0728,Заг Динамик Ад,42.7316495072,23.3171343815
1546,1546,Село Локорско,42.794487831,23.4478763502
1226,1226,29-ти Дкц,42.6643063263,23.2976979735
0236,0236,Метростанция Дружба,42.6608266428,23.3940490604
1058,1058,Метростанция Опълченска,42.6996645111,23.312611198
2360,2360,Ул. Люляк,42.6776573426,23.4647154275
2268,2268,Калфин Дол,42.5957184179,23.3595516193
2416,2416,Ул. Младост - По Желание,42.7998005615,23.4007897241
1674,1674,Стопанство Михайлово,42.7005723798,23.1258468651
0021,0021,26-ти Дкц,42.7251010733,23.255577781
1371,1371,По Желание,42.8489227098,23.2676380555
2496,2496,По Желание,42.7228383382,23.127276667
2783,2783,Ул. Могилата,42.6567304765,23.3271516971
0682,0682,Ж.к. Овча Купел 2,42.6829149882,23.2433499972
1303,1303,Пл. Ручей,42.67827217,23.2983740458
0069,0069,Нбу,42.6777007748,23.2538413606
1738,1738,Пг По Дизайн Елисавета Вазова,42.6809744516,23.3076575808
1838,1838,Ул. Бели Дунав,42.7331967535,23.2883982457
1309,1309,Пл. Сред Село,42.6612665977,23.24374745
0073,0073,Бул. Пейо Яворов,42.6830906194,23.3483218687
0828,0828,Кв. Гниляне,42.8094922844,23.3761164585
1831,1831,Ул. Баба Тонка - По Желание,42.8155074233,23.3523390995
0004,0004,Бл. 411 Ж.к. Младост 4,42.6379726154,23.3811728853
2579,2579,Ж.к.връбница 1,42.7350434457,23.2863042659
2281,2281,177-мо Оу С. Световрачане,42.7827205664,23.387918682
1224,1224,29-ти Дкц,42.6638699894,23.2968834385
2304,2304,Ханчето,42.6266766866,23.3585899989
2103,2103,Ул.планинец,42.6626978902,23.2536283947
1223,1223,Ул. Надежда,42.7541587877,23.4347531601
1829,1829,Ул. Атанас Узунов,42.6893953042,23.3643328306
0194,0194,Бл. 327 Ж.к. Младост 3,42.6402659909,23.3761980098
0825,0825,Гара Искър,42.6631169962,23.4156406329
0835,0835,Кв. Драгалевци,42.6290801844,23.3095439108
2183,2183,Село Подгумер,42.80687754,23.4043906647
0341,0341,Бул. Никола Вапцаров,42.6655175703,23.3189919428
0963,0963,Кокалянско Ханче,42.5818148266,23.4246487431
1425,1425,Начало Кв. Михайлово,42.704138861,23.1274299448
2716,2716,По Желание,42.6573775419,23.2035363194
6455,6455,Пл. Княз Александър I,42.6962519831,23.3263456882
0041,0041,66-то Соу,42.6724232954,23.2617527872
0414,0414,Околовръстен Път - По Желание,42.6242765287,23.3582026533
2040,2040,Ул. Макгахан,42.7063229445,23.3508683313
1510,1510,Селимица,42.620334162,23.1889351746
1099,1099,Моста На Р. Искър,42.7367439065,23.3953892259
2479,2479,Ул. 5010,42.6656159768,23.4168230698
0002,0002,102-ро Оу,42.7357571223,23.3052081311
6064,6064,Музей На Мечката,42.6354845011,23.2253612599
6221,6221,Метростанция К. Величков,42.7017302912,23.2984927606
1112,1112,Стц Интерпред,42.6692994737,23.35253818
0675,0675,Община Връбница,42.7319276922,23.285468186
1857,1857,Ул. Бяло Море,42.7022770344,23.3388248888
2187,2187,Ул. Стара Планина,42.8503621298,23.2672549876
2520,2520,Екобулсорт,42.7301321716,23.2254348639
0406,0406,Бул. Панчо Владигеров,42.7231294068,23.2592157075
1032,1032,Мгу Св. Иван Рилски,42.6611480407,23.3520067231
1154,1154,Ск На Цска,42.6750527266,23.3758080854
2681,2681,Хипермаркет Била,42.7204719478,23.2553851393
2814,2814,Ул. Васил Левски,42.7462565948,23.6061125826
1259,1259,Площад На Авиацията,42.6693150202,23.3668983459
1631,1631,Бул. Кръстьо Пастухов,42.6682451425,23.4016573169
2337,2337,Централни Хали,42.700385725,23.3224679075
0597,0597,Ж.к. Гео Милев,42.6767198464,23.3696737719
0192,0192,Бл. 32 Ж.к. Овча Купел 2,42.6892633438,23.2452183406
21,21,Искърско Шосе,42.6680552106,23.4023337025
0659,0659,Хотел Амбасадор,42.638489709,23.3344109713
0966,0966,Махала Коньовица,42.6956526413,23.2602497363
0425,0425,В.з. Герман,42.6254599889,23.422481664
1572,1572,Семинарията,42.6761262973,23.3332725545
0888,0888,Кв. Павлово,42.6678201559,23.2654088232
6298,6298,Център Банкя,42.707726314,23.1455926582
0362,0362,Бул. Прага,42.6899500176,23.3134809826
1049,1049,Метростанция Западен Парк,42.7111430566,23.269258794
1000,1000,Ул. Локомотив,42.7289925166,23.3192149542
2131,2131,Ул. Поп Груйо,42.7021668733,23.3824140933
2601,2601,Ул. Ген. Гурко,42.6898420843,23.3319406469
2619,2619,Ул. Еделвайс - По Желание,42.7897016818,23.3098355445
1242,1242,Пл. Васил Левски,42.697513326,23.3349533399
1506,1506,Мост На Суходолска Река,42.7242479798,23.3254101287
2460,2460,Гара Курило,42.8185504147,23.3563351001
2742,2742,Метростанция Ал. Малинов,42.6464204631,23.3769703868
2773,2773,Ул. 24-ти Май,42.7464572792,23.6045104
2832,2832,192-ро Соу С. Бистрица,42.5833293481,23.3590735697
0677,0677,Ж.к. Обеля 1,42.7371614035,23.2682389637
1011,1011,Лифт Симеоново,42.6177649816,23.3487016678
2453,2453,Рвд,42.6843537975,23.40852216
1002,1002,Летище Доброславци,42.8132303789,23.2793139328
2367,2367,Читалище Отец Паисий,42.6926827086,23.3599560479
2706,2706,Гара Горна Баня,42.6737301305,23.2401780764
0311,0311,Бул. Гоце Делчев,42.6765325652,23.2892749004
0634,0634,Ж.к. Красна Поляна,42.6906872037,23.2783959778
2369,2369,Дом На Културата Искър,42.6646517054,23.3989699878
1251,1251,Западен Парк,42.7148836267,23.2836770932
2708,2708,Ул. Обзор,42.6758111151,23.2321256292
0059,0059,Автостанция Обеля,42.7420021688,23.2777843128
1038,1038,Мелницата Чепинци,42.7506249513,23.4347733403
0831,0831,Кв. Горубляне,42.6279781251,23.4075204743
2537,2537,Ул. Стара Планина,42.7871986049,23.5202805036
0099,0099,Банята Кв.гниляне,42.8005876724,23.379944961
1197,1197,Умбал Св. Анна - Ухо,42.6599383382,23.3740852483
1574,1574,Семинарията,42.6766383043,23.3335553774
0235,0235,Метростанция Дружба,42.6592058172,23.3954991248
1282,1282,Пл. Македония,42.6938260363,23.315004875
2797,2797,Летищен Център София,42.6825856514,23.401379106
206,206,Централна Гара,42.7101650654,23.3222296541
0294,0294,Бул. Вардар,42.695712701,23.2875779095
2185,2185,Ул. Стара Планина,42.7295755346,23.5646048289
0869,0869,Ул. Топлика,42.6903148928,23.1192428162
0980,0980,Ул. Меча Поляна,42.6495803763,23.2463068237
2623,2623,В.з. Малинова Долина,42.6236932378,23.3620102603
0200,0200,Бл. 350 Ж.к. Люлин 3,42.7249294681,23.2436570183
2760,2760,Местност Ярема,42.4998069494,23.3331470964
0050,0050,Автостанция Банкя,42.7084529442,23.1525195588
0316,0316,Бул. Д-р Г.м. Димитров,42.6599533095,23.3490032614
1889,1889,Ул. Ген. Асен Николов,42.7206261956,23.2643822051
2429,2429,Ул. Христо Силянов,42.7317246044,23.2967264835
2,2,Люлин,42.7186044436,23.2567822658
2076,2076,Ул. Одрин,42.6994233243,23.3042882419
0184,0184,Бл.3 Ж.к. Дружба 1,42.6649849666,23.3907854317
1733,1733,Телевизионна Кула,42.6778345045,23.3424500606
0849,0849,Кв. Карпузица,42.6681668211,23.2409580283
1652,1652,Промишлена Зона Горни Лозен,42.6145416804,23.4603579911
0490,0490,Ул. Тодор Каблешков,42.6621902986,23.2958133685
1044,1044,Метростанция Вардар,42.7069643625,23.2847248989
0307,0307,Бул. Възкресение,42.694464901,23.2920144525
1399,1399,Попова Махала,42.4936313334,23.3765919477
6332,6332,Ул. Витиня - Временна,42.7093800227,23.3696350098
0232,0232,Бл. 527 Ж.к. Овча Купел 1,42.6889066696,23.2548099995
1394,1394,Българска Телеграфна Агенция,42.6858057701,23.3439424631
2107,2107,Метростанция Хаджи Димитър,42.7034212002,23.3545546678
1906,1906,Ул. Георги Бенковски,42.7588931999,23.2051499001
0444,0444,Умбал Св. Екатерина,42.6855772931,23.3120362884
2177,2177,Ул. Снеженик,42.7218789365,23.3311012165
6278,6278,Ул. Костенски Водопад,42.6619216919,23.2946783384
0213,0213,Бл. 427 Ж.к. Младост 4,42.6332948116,23.3766932978
1414,1414,Пречиствателна Станция,42.6139035637,23.3637220762
1541,1541,Село Кривина,42.6819399091,23.4627123759
2750,2750,Ул. Ал.стамболийски - По Желание,42.8205347483,23.3609571244
1033,1033,Мгу Св. Иван Рилски,42.6610750198,23.3512550036
0742,0742,Зимен Дворец На Сторта,42.6443582928,23.3420233549
2845,2845,Ж.к. Гоце Делчев,42.6604649862,23.297209994
0189,0189,Техно Парк София,42.6494460544,23.4087627262
1260,1260,Площад На Авиацията,42.6699990286,23.3695899715
0332,0332,Бул. Ломско Шосе,42.7325775778,23.296909461
1723,1723,Пгвад,42.7280251982,23.3237932959
0593,0593,Ж.к. Връбница 2,42.73471224,23.2862447515
1563,1563,Село Чепинци,42.7574602534,23.4256206558
0246,0246,Бл. 66 Ж.к. Младост 1,42.6510504354,23.3762978922
2728,2728,Езерото С. Казичене,42.6580209654,23.4547380615
1345,1345,Пк Спартак,42.6755574133,23.3154040657
1126,1126,Начало Кв. Клисура,42.7203495588,23.0966904874
0896,0896,Кв. Република,42.7368496146,23.2428066339
1080,1080,Моста На Лесновска Река,42.7069161257,23.5001441312
2312,2312,Хладилен Завод,42.708497549,23.3322719241
2002,2002,Ул. Козлодуй,42.7074751437,23.3231911286
0390,0390,Бул. Цар Борис Ііі,42.6656106869,23.2591112402
1887,1887,115-то Оу,42.7228025594,23.5312116075
0397,0397,Хотел Хилтън,42.6820269871,23.3207535719
1856,1856,Ул. Бяло Море,42.6992677015,23.3397257208
2661,2661,Метростанция Хан Кубрат,42.7223046047,23.3069868533
2771,2771,Ул. Герена,42.7446421158,23.6056414425
0042,0042,66-то Соу,42.6726462981,23.2621997099
2615,2615,Спортна Зала Арена Армеец,42.6716193505,23.3716974498
0110,0110,Бетонов Възел,42.7364568617,23.3251098172
1422,1422,Първа Градска Болница,42.6889036217,23.3231092009
1845,1845,Ул. Боряна,42.6736450195,23.2522633394
0713,0713,Парка С. Кривина,42.6743308962,23.4654632837
0646,0646,Ж.к. Левски Г,42.7121113437,23.3880603925
0465,0465,Гара Пионер,42.6667094736,23.3381299781
1218,1218,Оц Овча Купел,42.6886641576,23.2622986391
1427,1427,Разклон За С. Герман,42.6075721592,23.4002927889
2418,2418,Бул. Царица Йоана,42.7113806013,23.2718940301
0251,0251,Бл. 706 Ж.к. Люлин 7,42.7134686723,23.264684216
1184,1184,Околовръстен Път,42.6339921845,23.4432207395
1620,1620,Стадион Банкя,42.7097337103,23.1608514931
1876,1876,Яз. Мало Бучино,42.6970344133,23.1910701105
1806,1806,Ул. 6-ти Септември,42.6865367639,23.3242635664
1331,1331,Централна Гара,42.7106809004,23.3187495919
1967,1967,Кв. Киноцентър,42.6486988342,23.2947709037
2175,2175,Ул. Синята Скала,42.6557723479,23.232325941
1155,1155,Ск Цска,42.6752432268,23.3755914441
0287,0287,Бул. Ал. Стамболийски,42.6993750254,23.3030216535
0773,0773,Ул. Калояново,42.6700049718,23.2568316619
2583,2583,Ул. Искърско Шосе,42.6627015808,23.4117037848
6157,6157,Метростанция Вардар,42.7055933634,23.2828216553
1512,1512,Село Бистрица,42.5862457757,23.3605502121
2477,2477,Метростанция Хан Кубрат,42.7217366898,23.3076076997
0434,0434,В.з. Суходол,42.7010183941,23.2007596774
0955,0955,Община Нови Искър - По Желание,42.8028067994,23.3435908819
1400,1400,Посолствата,42.6527261713,23.3677161921
1747,1747,Тец София,42.7171666182,23.3202752869
0274,0274,Бул. Акад. Ив. Гешов,42.6863650004,23.2994666735
0080,0080,Ап Земляне,42.6827424201,23.2787186207
1083,1083,Мостът,42.7196170381,23.0879324043
1152,1152,Ск Цска,42.6747834295,23.3768323921
1471,1471,Воденичарски Механи,42.6224920747,23.3090883133
0996,0996,Къмпинга,42.718957504,23.1763825051
2593,2593,Хермес Парк,42.6600138958,23.380843481
0177,0177,Промишлена Зона Ж.к. Дружба 1,42.6714769332,23.3822689234
1825,1825,Ул. Ангел Войвода,42.7079483006,23.357364156
6215,6215,Бул. Ломско Шосе,42.7346525071,23.2917983431
0452,0452,Гара Захарна Фабрика,42.7124609371,23.2913431283
0169,0169,Метростанция Ал. Малинов,42.6461283494,23.3755543149
1500,1500,Начало С. Владая,42.6338732673,23.1948874561
1848,1848,Ул. Буря,42.6690889991,23.2441124326
2184,2184,Ул. Стара Планина,42.7295447318,23.5649107454
2380,2380,Южен Парк,42.6746005776,23.3093495774
2056,2056,Ул. Народно Хоро,42.6805643052,23.2691891557
2591,2591,Ул. Инж. Георги Белов,42.6364653837,23.3999613146
5,5,Константин Величков,42.7018586314,23.29824833
0209,0209,Бл. 41 Ж.к. Младост 1,42.6565861129,23.3762590811
1552,1552,Кметство Мърчаево,42.6000792273,23.1702492961
0958,0958,Община Банкя,42.7058524399,23.147990549
0372,0372,Бул. Христофор Колумб,42.66055212,23.3920038613
0558,0558,Езерото,42.661865114,23.3967748668
6440,6440,Пл. Св. Ал. Невски,42.6957302553,23.3339403913
1683,1683,Начало Кв. Требич - По Желание,42.7713479659,23.3156663553
2733,2733,Пазар Малашевци,42.7185208349,23.3592159408
1272,1272,Пл. Възраждане,42.6983710088,23.3140736929
1446,1446,Разклон За С.плана,42.4829921871,23.4093139196
2193,2193,Ул. Стефан Пешев,42.6658246836,23.2439068179
0683,0683,Ж.к. Овча Купел 2,42.682299832,23.242123231
2364,2364,Ул. Проф. Ал. Станишев,42.7226361794,23.2575745995
1090,1090,Мост За Резиденция Врана,42.636528333,23.4212266604
0162,0162,Бл. 207 Ж.к. Обеля 2,42.7464913069,23.26930685
0158,0158,Бл. 206 Ж.к. Младост 2,42.6422535248,23.368398518
2012,2012,Ул. Кракра,42.6972395878,23.3378694622
0227,0227,Бл.505 Ж.к. Овча Купел 1,42.6864433289,23.2554749966
1276,1276,Пл. Лъвов Мост,42.7040313598,23.3235726796
1016,1016,Метростанция Цариградско Шосе,42.6503916423,23.3934000015
0083,0083,Ул.н.хрелков,42.6871646193,23.2325908581
0248,0248,Бл. 69 Ж.к.младост 1,42.6490862794,23.3721701972
0474,0474,Гара Руднична - По Желание,42.7672802537,23.4926143998
0549,0549,Стинд 1,42.7313454859,23.3261141406
6160,6160,Община Люлин,42.7163049698,23.2512016614
6005,6005,Ул. Димитър Петков - Временна,42.7076866251,23.3025855933
0176,0176,Бл. 255 Ж.к. Дружба 2,42.652730858,23.4039090686
0079,0079,Ап Земляне,42.6831274041,23.2778269066
2738,2738,В.з. Подгумер - По Желание,42.8096048624,23.4046577161
308,308,Орлов Мост,42.690505407,23.335903401
0016,0016,20-ти Дкц,42.6716426226,23.2836779997
1998,1998,Ул. Княз Борис I,42.7047216747,23.3228384183
2128,2128,Ул. Поп Груйо,42.710482527,23.38156834
0077,0077,Ап Дружба,42.6492277563,23.4163623613
0387,0387,Уасг,42.6857677234,23.3310294871
0505,0505,Гребна База,42.5979687683,23.4062524782
1348,1348,Начало Кв. Д. Миленков,42.6598239163,23.423475256
1378,1378,По Желание,42.7115242641,23.1919338867
1308,1308,Площад Света Неделя,42.6970641383,23.3209704733
1594,1594,София Мед Ад,42.6596648635,23.4150632537
1418,1418,Простор,42.6954379556,23.2445742804
1435,1435,Разклон За Летището,42.7072991378,23.4084031329
2009,2009,Ул. Костенски Водопад,42.6656802179,23.3020004896
2316,2316,Хлебозавода,42.7179418367,23.1875411403
2763,2763,Бул. Черни Връх,42.6584101865,23.314694193
2811,2811,Ул. Сава Филаретов,42.72969458,23.2992383039
1507,1507,Чешмата,42.5759340298,23.3593156893
0364,0364,Бул. Прага,42.6889212064,23.3145288235
2086,2086,Ул. Опълченска,42.7012012059,23.3102057091
1870,1870,Ул. Витиня,42.7006385372,23.3739964984
1237,1237,Паметник С. Доброславци,42.8219175982,23.286217282
1360,1360,Махала Чемерник,42.5262013797,23.3681773435
0201,0201,Бл. 351б Ж.к.младост-3,42.6378047157,23.38525564
1598,1598,Балкан Стар,42.7109804883,23.3506198943
2841,2841,Ул. Милениум,42.7110600154,23.1769033273
0587,0587,Ж.к. Бъкстон,42.6592799388,23.2728252768
1585,1585,Сервиз Полмо,42.7286798735,23.344225698
1818,1818,Ул. 9,42.6350157913,23.3539291107
2089,2089,Ул. Орехова Гора,42.6695491295,23.2974612147
1437,1437,Работилницата,42.6977233738,23.4437860261
2766,2766,Бул. Д-р Петър Дертлиев,42.7103353629,23.2453979189
6652,6652,Гара Обеля - Временна,42.7388916651,23.2648466746
6238,6238,Хюндай България,42.7431849798,23.3188266754
1935,1935,Ул. Дойран,42.6786382208,23.2922045644
2071,2071,Ул. Оборище,42.69265917,23.3549651179
1700,1700,Су Св. Климент Охридски,42.6922010351,23.3352866316
0977,0977,Ул. Сребърна,42.6594426214,23.3248680497
2349,2349,Начало С. Житен,42.8114924385,23.256076779
1927,1927,Ул. Димитър Петков,42.7027925854,23.3008092378
0161,0161,Бл. 206 Ж.к. Младост 2,42.6422357094,23.36812377
1496,1496,Руско Посолство,42.6729330764,23.3474666652
208,208,Сердика 2,42.6987460296,23.3220795939
0680,0680,Ж. К. Обеля 3,42.7483367923,23.2771483026
2523,2523,Нова Махала - По Желание,42.695144949,23.4456553212
1892,1892,Ул. Ген. Вл. Динчев,42.7179409902,23.2731510366
0327,0327,Бул. К. Величков,42.7005253129,23.2968418765
0711,0711,Ул. Княгиня Косара,42.6973874936,23.3752086224
0344,0344,Бул. Никола Вапцаров,42.6651119685,23.3185256052
0025,0025,28-ми Дкц,42.6662062571,23.4060970169
0241,0241,Бл. 620 Ж.к. Люлин 6,42.7088065934,23.2473955569
2459,2459,Площад Кв. Враждебна,42.7128029273,23.4190758977
2277,2277,90-то Соу,42.7263770148,23.2532132499
1769,1769,Пътен Възел Яна - По Желание,42.7226687613,23.5423103982
6166,6166,Село Чепинци,42.7584227223,23.4261790701
1842,1842,Ул. Бесарабия,42.7067963257,23.3735043423
0898,0898,Кв. Сеславци,42.7833426238,23.5176724266
0997,0997,Къмпинга,42.7187926187,23.1756597438
1020,1020,Магазин Метро 2,42.7460541179,23.2286274968
1749,1749,Тец Изток,42.6509815508,23.413900533
2402,2402,Ул. Васил Левски,42.6006383577,23.4959875129
1045,1045,Метростанция Вардар,42.706010752,23.2838043254
0020,0020,26-ти Дкц,42.7256019212,23.2549377801
0927,0927,Кино Одеон,42.6885945535,23.329630595
0150,0150,148 Соу,42.6845402845,23.3717885908
1479,1479,Мост С. Долни Богров,42.7038911093,23.4928332162
2285,2285,64-то Оу,42.616373318,23.3374733886
0733,0733,Ул. 44-та,42.6072013529,23.3676849509
1641,1641,Промишлена Зона Бусманци,42.6722364182,23.4389877749
2015,2015,Ул.крум Стоянов,42.7140337983,23.2984383765
2509,2509,Хотел Макси,42.6429527999,23.3366210567
1578,1578,Тюф,42.6760756176,23.4012147317
1726,1726,Театър София,42.6962646111,23.3460259366
1485,1485,Рудника - По Желание,42.7668471971,23.5437016891
2290,2290,Селскоктопанска Академия,42.6968315874,23.2649428656
2346,2346,Център Кв.филиповци,42.7197205955,23.2211921497
2542,2542,Нсбал По Онкология,42.6630730656,23.3564261032
2747,2747,Началото Кв. Гниляне,42.8056367259,23.3785022533
0755,0755,Стоков Базар Илиянци,42.7381185692,23.3176642611
0543,0543,Ритекс Ад,42.6653162825,23.4621123581
1836,1836,Ул.байкал,42.6479824539,23.2647638043
1587,1587,Слатина Булгарплод,42.6789291493,23.3832351497
0415,0415,Околовръстен Път - По Желание,42.6242590167,23.3576102676
1076,1076,Моста Кв. Витоша,42.6554527233,23.3363215575
1100,1100,Моста На Р. Искър,42.7368147781,23.3957196289
1843,1843,Ул. Бесарабия,42.6995033002,23.3753654159
1914,1914,Ул. Граф Игнатиев,42.6864100511,23.3300278076
1031,1031,Ул. Монтевидео,42.6954127833,23.2525394769
2574,2574,Ул. Ген. Никола Жеков,42.7342843446,23.3084720759
2104,2104,Ул.планинец,42.6625153953,23.2532715759
2047,2047,Ул. Космонавт,42.7128066645,23.1664118284
2352,2352,Техническа Библиотека,42.6642948593,23.3595266662
1811,1811,Ул.61,42.7103404197,23.4028358075
2073,2073,Ул. Оборище,42.692658413,23.3551769752
201,201,Ломско Шосе,42.7404642226,23.2873401387
2420,2420,Ул. Пловдив,42.7087929871,23.2996847991
1133,1133,Начало С. Плана,42.4797122052,23.3986256951
1301,1301,Пл. Ручей,42.6769914202,23.2979234826
1787,1787,Турмачка Махала,42.4795631947,23.4113748759
2729,2729,Разклона За Кв. Видните,42.6569261875,23.456521972
2205,2205,Ул. Тимок,42.7057146282,23.3285730222
1630,1630,Бул. Кръстьо Пастухов,42.6679973128,23.4020294158
0766,0766,Институт По Ортопедия,42.6727161916,23.244604844
2023,2023,Автостанция Изток,42.7032683269,23.3876594372
0769,0769,Институт По Черна Металургия - По Желание,42.7473229217,23.5087353499
1225,1225,Ул. Патриарх Дамян,42.7333787116,23.301806559
0697,0697,Ж.п. Прелез,42.7340316608,23.3434254484
1088,1088,Моста Долни Пасарел,42.5384322324,23.4997953238
6275,6275,Бул. България,42.6656456945,23.2866999886
2807,2807,Естакадата Младост,42.6496084113,23.3674139955
2319,2319,Хмс,42.6555973161,23.3822628466
2764,2764,Зоопарка,42.6591230615,23.3275773855
2820,2820,Паметника С. Яна - По Желание,42.7279185758,23.5599621844
2471,2471,Ул. Йерусалим,42.6542734144,23.3717070243
0548,0548,Промишлена Зона Кривина,42.6698115376,23.46437142
1651,1651,Начало С. Голяновци,42.8258817211,23.2424135391
2231,2231,Ул. Хан Кубрат,42.7264321527,23.2899349044
2210,2210,Ул. Т. Каблешков,42.6692480735,23.2773801692
0592,0592,Ж.к. Връбница 1,42.7349073391,23.2860012118
0550,0550,Стинд 1,42.7312510219,23.3259556997
0536,0536,Детско Градче,42.6153691433,23.4009826422
0318,0318,Бул. Д-р Г.м. Димитров,42.658425528,23.3484256052
20,20,Дружба,42.6587449987,23.3945583903
2069,2069,Ул. Обиколна,42.6487456365,23.4045039853
2044,2044,Ул. Маломир,42.6550795884,23.265542744
2635,2635,Ул. Света Петка,42.7855122419,23.5005525644
0519,0519,Депо Искър,42.6560862694,23.4144029874
1161,1161,117-то Соу,42.7571680272,23.5557822289
1775,1775,Кв. Триъгълника,42.7194310232,23.3095571997
1773,1773,16-ти Дкц,42.7385753632,23.5067876725
1706,1706,Пазара Овча Купел,42.684373347,23.2410350005
1970,1970,Ул. Йосиф Шросмайер,42.7115446793,23.3007971575
0226,0226,Бл. 501 Ж.к. Дружба 2,42.6432319149,23.412242936
0975,0975,София Мед Ад,42.6596299765,23.4150995289
2159,2159,Ул. Рилска Обител,42.7013037466,23.3766057097
0330,0330,Бул. Ломско Шосе,42.734301726,23.2908008215
1701,1701,Промишлена Зона Казичене,42.6676697487,23.4476832864
2016,2016,Ул.крум Стоянов,42.7137575975,23.2984555674
2620,2620,Ул. Крушата - По Желание,42.7929231369,23.3293373743
6220,6220,Централна Гара,42.7107555425,23.3190826281
1003,1003,Летище Доброславци - По Желание,42.8183217694,23.3137079911
2032,2032,Ул. Лиляче,42.6875493161,23.2669538176
2237,2237,Ул. Хоризонт,42.7376652159,23.3367662978
0542,0542,Модна Къща Агресия,42.7266226749,23.312105173
1221,1221,Ул. Зорница,42.7633639485,23.2438620298
2325,2325,Хотел Плиска,42.6766575967,23.3598815781
0723,0723,Ул. Поручик Хр. Топракчиев,42.6686281917,23.4124713319
23,23,Летище София,42.6880611321,23.4161254887
2652,2652,Ж.к. София Парк,42.6195370676,23.3690363762
1649,1649,Махала Батареята,42.7092399774,23.4244204492
1740,1740,Технически Университет,42.6566586809,23.3590532886
1711,1711,Магазин Витоша,42.7131630373,23.2484089
0887,0887,Кв. Орландовци,42.7174249881,23.3392851382
2439,2439,Мост На Р.искър Кв. - Враждебна,42.7102589176,23.419025475
2804,2804,Бул. Акад. Ив. Гешов,42.6793572167,23.3013238807
2021,2021,Автостанция Изток,42.7032383276,23.3885278197
0969,0969,Пазара Младост 1,42.652797659,23.3738423561
1554,1554,Село Негован,42.7687870877,23.4058673343
2664,2664,Бул. Рожен,42.7311511841,23.3142861673
2001,2001,Ул. Козлодуй,42.7069982762,23.3245602281
0204,0204,Бл. 39 Ж.к. Горубляне,42.6342297334,23.3992860576
1824,1824,Ул. Александър Жендов,42.6806682997,23.357150835
1797,1797,Ул. Демокрация,42.6840865319,23.1636355918
0930,0930,Киноцентър Бояна,42.6416940275,23.2930470257
1123,1123,Ул. Минзухар,42.8152685692,23.2531016331
2029,2029,Ул. Лиляче,42.6865151699,23.2660509161
2748,2748,Ул. Ал. Стамболийски,42.8203793023,23.361138716
0515,0515,Депо Искър,42.6550517009,23.4145148449
6331,6331,Ул. Професор Фритьоф Нансен,42.6843176105,23.3206893168
1017,1017,Метростанция Цариградско Шосе,42.6495933533,23.3931866646
1595,1595,Ул.тинтява,42.7001496121,23.1496798577
1667,1667,Ул. Веско Веселинов,42.7904324324,23.4450303862
1164,1164,Бл.21 Ж.к.люлин 1,42.7283705,23.2495182255
0472,0472,Гара Подуяне,42.6968123764,23.3558281985
2251,2251,Ул. Цар Симеон,42.7051622989,23.2982320212
0199,0199,Бл. 350 Ж.к. Люлин 3,42.7249954549,23.2448238224
8,8,Софийски Университет Св. Климент Охридски,42.6917992515,23.3352544592
2850,2850,Ул.чавдар Мутафов,42.6559399923,23.332978344
0312,0312,Бул. Гоце Делчев,42.6714528788,23.2938272806
1448,1448,Резиденция Бояна,42.6488354644,23.269590403
0471,0471,Гара Подуяне,42.6970904387,23.3535717268
0492,0492,Републикански Невродиспансер,42.6669723826,23.36519964
6264,6264,Бистришко Шосе,42.6165357793,23.3650371531
0443,0443,Умбал Св. Екатерина,42.6860446048,23.3117485632
2013,2013,Вту Т.каблешков,42.6793768874,23.3787150623
2124,2124,Ул. Поп Груйо,42.7104120504,23.3795066961
0447,0447,Ул. Йерусалим,42.6544176439,23.3727760139
1040,1040,Промишлена Зона,42.6093817927,23.3421294466
0310,0310,Бул. Гоце Делчев,42.665888316,23.3031358693
0879,0879,Кв. Овча Купел,42.6715869182,23.2725184837
2427,2427,Автостанция Изток,42.7042528819,23.3864818152
1734,1734,Терснаб,42.735605211,23.3290227985
6641,6641,Кметство Казичене,42.6598000209,23.464836661
1782,1782,Бул. П. Владигеров,42.7240610561,23.2577961862
0015,0015,163-то Оу,42.6452239413,23.4047836782
1173,1173,Кв. Суходол,42.6953054673,23.2302032362
2167,2167,Ул. Луи Пастьор,42.7203056627,23.2737131225
0426,0426,Кв. Малинова Долина,42.6378847632,23.3532582894
1455,1455,Разклон За Летището,42.6710341448,23.3935658782
2375,2375,Шлаков Цех,42.7364074504,23.5540670241
2500,2500,Ул. Витоша,42.5321553489,23.3674684747
0508,0508,Гробищен Парк Негован,42.7669039525,23.4087471239
0701,0701,Софиямел Ад,42.7069378578,23.3395517835
0441,0441,Военна Академия,42.6926397255,23.3436502788
0924,0924,Балканкерамик Ад - По Желание,42.8069041005,23.3484418278
2844,2844,Ул. Перуника,42.714109993,23.1742166678
0049,0049,Авторемонтна База,42.6255560276,23.4468307554
1475,1475,Бл.6 Ж.к. Сухата Река,42.6998524581,23.3696084329
1661,1661,Края На С. Железница,42.529233145,23.3644260189
0396,0396,Хотел Хилтън,42.6852027943,23.3212136383
1710,1710,Търговски Комплекс Обеля,42.7422940592,23.2809939774
1647,1647,Начало С. Войнеговци - По Желание,42.7984624384,23.4218095559
6553,6553,Площад Възраждане,42.6975350062,23.3137999852
2054,2054,Ул. Народно Хоро,42.679766655,23.2690183322
0331,0331,Ул. Христо Силянов,42.7327868792,23.2958917205
0335,0335,Ул. Луи Пастьор,42.7130046845,23.2658882259
0993,0993,Културен Дом,42.7609748517,23.5627300424
1086,1086,Моста На Р.стубела,42.6958353142,23.2400301213
2051,2051,Ул. Надежда,42.7249323973,23.2816529317
0214,0214,Бл. 427 Ж.к. Младост 4,42.6332146456,23.3768816157
0792,0792,Кантона,42.4871864987,23.3835399162
1068,1068,Мината,42.594427459,23.3645441636
2562,2562,Ул. Андрей Германов,42.737582297,23.2612400638
0268,0268,Бул. Акад. Ив. Гешов,42.6794921396,23.3037295677
2534,2534,Ул. Липа,42.7805005855,23.5180978926
2735,2735,Ул. 746 - По Желание,42.6954520975,23.2547820705
6618,6618,Природен Парк Витоша,42.5076733271,23.3318750064
0631,0631,Ж.к. Красна Поляна,42.6911616643,23.2788633347
0745,0745,Софарма Ад,42.7354959721,23.3175130581
0392,0392,Бул. Цар Борис Iii,42.687498347,23.3012216568
1820,1820,Ул. Александър Жендов,42.6773311904,23.3559045809
0872,0872,Кв. Обеля,42.7431516575,23.2748382455
0807,0807,Кв. Бояна,42.6494087504,23.2644858433
1799,1799,Ул. 308,42.7182185511,23.2467866537
1891,1891,Ул. Ген. Асен Николов,42.7213000159,23.2644400539
1351,1351,Ул. Брезите,42.645613574,23.273429647
1191,1191,Околовръстен Път,42.7182330818,23.2320338574
2266,2266,Манастир Св. Никола,42.5545198041,23.428459238
0117,0117,Биомет Еоод - По Желание,42.8011428515,23.264177815
1391,1391,Бл.11 Ж.к. Люлин 1,42.730573494,23.2481010686
1989,1989,Ул. Кирил Христов,42.7693737306,23.3593654836
1298,1298,Пл. Руски Паметник,42.6926499685,23.3111816724
0427,0427,Ул. Златен Век,42.6225699637,23.3328071399
0516,0516,Депо Искър,42.6543799718,23.4110183398
2737,2737,В.з. Подгумер - По Желание,42.809550305,23.4045891428
2046,2046,Ул. Милин Камък,42.6745691522,23.328941652
1849,1849,Ул. Буря,42.6685849199,23.2444517939
0336,0336,Ул. Луи Пастьор,42.7132272919,23.2655900225
0594,0594,Ж.к. Връбница 2,42.7393908604,23.2906770826
2441,2441,Кантона,42.7085981374,23.4326369243
2381,2381,Студентски Град,42.6452784353,23.3336137337
0632,0632,Депо Кр. Поляна,42.6910489693,23.2788021692
2392,2392,Бл. 472 Ж.к. Младост 4,42.6272058733,23.3786352635
1671,1671,Ул. Спортист - По Желание,42.7868353112,23.3066073904
6458,6458,Пл. Княз Александър I,42.6965229343,23.3262060182
6008,6008,Ул. Подп. Калитин - Временна,42.7110975922,23.310015283
1616,1616,Начало С. Доброславци,42.8184446563,23.2806826094
2282,2282,177-мо Оу С. Световрачане,42.782493362,23.387364798
0988,0988,Кулинарен К-т Пейфил,42.6385440044,23.3971907644
0912,0912,Метростанция Витоша,42.6596628168,23.3173727151
1628,1628,Бул. Кръстьо Пастухов,42.6673473697,23.401514774
2133,2133,Ул. Поручик Гр. Загорски,42.718410739,23.2398551102
0824,0824,Кв. Враждебна,42.7124804395,23.4119548452
6038,6038,Метростанция Овча Купел,42.6822983424,23.2709199905
0368,0368,Бул. Проф. Цветан Лазаров,42.673655196,23.3824484648
2497,2497,По Желание,42.7218982759,23.1292094081
2631,2631,Ул.вишновска - По Желание,42.7926224631,23.3105881576
2492,2492,Кино Арена Ii,42.623768615,23.3768282159
2654,2654,Метростанция Витоша,42.6600966069,23.316793547
1265,1265,Пл. Ал. Невски,42.6963480177,23.3300613795
1699,1699,Су. Св. Климент Охридски,42.6948983039,23.3349368801
4,4,Вардар,42.7058746604,23.2848944326
1054,1054,Метростанция Люлин,42.7183758672,23.2570738646
0143,0143,Бл. 162 Ж.к. Дружба 1,42.6573335147,23.401486115
0971,0971,Корабчето,42.6419229621,23.4051552321
1374,1374,В.з. Малинова Долина,42.6241279155,23.3615212482
0932,0932,Кметство Балша,42.848573869,23.2695216288
2809,2809,Ул. Хан Кубрат - Временна,42.7251527586,23.3041203497
2127,2127,Ул. Поп Груйо,42.7071406878,23.3792208862
6643,6643,Село Казичене,42.6623699824,23.4646266619
0655,0655,Ж.к.люлин 5,42.7128716787,23.2385049979
2712,2712,Хотел-ресторант,42.6670306206,23.2183822556
1190,1190,Промишлена Зона - Ломско Шосе,42.7551669715,23.2718067034
2217,2217,Ул. Тодорини Кукли,42.7031705205,23.3596372503
2045,2045,Ул. Милин Камък,42.6746433075,23.3290538066
2143,2143,Ул. Просвета,42.7245259861,23.3160179123
1219,1219,Оц Овча Купел,42.6880881023,23.2631976791
1858,1858,Ул. Бяло Море,42.6990466737,23.339166256
0884,0884,Кв. Орландовци,42.7179034796,23.338938187
1246,1246,Параклис Св. Иван Рилски,42.6616676222,23.2735446134
2683,2683,Ул. Захари Попов,42.7642105833,23.5663744303
311,311,Медицински Университет,42.6867740265,23.3102461602
0254,0254,Бл. 715 Ж.к. Люлин 7,42.7147480262,23.2586957225
2576,2576,Бул.ломско Шосе,42.7348110798,23.2917969328
1244,1244,Кв. Панчарево,42.5964415452,23.4134912925
1950,1950,Ул. Иван Йосифов,42.7126407338,23.3031649363
2758,2758,Ул. Димитър Ашов,42.6568762514,23.4656381795
0131,0131,Бл. 11 Ж. К. Левски В,42.7091597603,23.3841131977
0599,0599,Ж.к. Гоце Делчев,42.6599386356,23.2972300154
0894,0894,Кв. Република,42.7375636349,23.242963733
1730,1730,Телевизионна Кула,42.67718757,23.3411412631
1944,1944,Централен Гробищен Парк,42.7111314608,23.3322914508
1082,1082,Моста На Селска Река,42.7707447034,23.2415031058
1354,1354,По Желание,42.7149137256,23.4363900914
0293,0293,Бул. Вардар,42.6955186463,23.2880618194
2088,2088,Ул. Орехова Гора,42.6690108643,23.2979125868
2261,2261,Ул. Райска Градина,42.6608030912,23.2485031944
1177,1177,Околовръстен Път,42.6405531329,23.3122489368
2377,2377,Шумако,42.6014652366,23.3500617058
0039,0039,60-то Оу Кв. Бенковски,42.742287633,23.3457384082
0588,0588,Ж.к. Бъкстон,42.6584590425,23.2728108576
1750,1750,Тец Изток,42.6505985747,23.4137203449
2531,2531,Разклона За Кв. Сеславци,42.7802216618,23.5152285159
0770,0770,Институт По Черна Металургия - По Желание,42.7476670193,23.5089528435
1826,1826,Ул. Ангел Войвода,42.7066102284,23.3580082966
0403,0403,Бул.шипченски Проход,42.6787145407,23.3607769219
1379,1379,По Желание,42.7115907059,23.191990397
1721,1721,Съдебна Палата,42.6952204181,23.3183784641
1268,1268,Пл. Биримирци,42.7377725999,23.3436636939
0416,0416,Всу Л. Каравелов,42.6950581723,23.2486911976
1517,1517,Село Герман,42.6097283569,23.4104536778
1602,1602,В И К - Еад - София,42.6388055138,23.3935085401
1904,1904,Ул.гео Милев,42.6825821203,23.3627881234
0034,0034,Кв. Гара Искър,42.6620458523,23.4154548688
0779,0779,В.з. Симеоново - Драгалевци,42.6225633874,23.3222879396
0979,0979,Начало С. Локорско,42.7879847481,23.4446409299
1592,1592,Скиорката,42.6497060195,23.2603265929
2487,2487,Бл. 323 Ж.к. Младост 3,42.639271713,23.3750204737
2618,2618,Ул. Еделвайс - По Желание,42.7895669254,23.309352765
0010,0010,14-ти Дкц,42.6797183968,23.3113631515
2060,2060,Ул. Николай Коперник,42.6793056648,23.360777977
0352,0352,Бул. Овча Купел,42.6831089967,23.2702637869
2233,2233,Ул. Хан Кубрат,42.7283079238,23.2890899348
2090,2090,Ул. Орион,42.7182093476,23.2793826998
1337,1337,Плодохранилище,42.7537019976,23.2478092758
0408,0408,В.з. Бункера,42.6103552338,23.3637865665
0950,0950,Кметство Село Яна,42.7313047416,23.5580627602
1860,1860,Ул. Васил Кънчев,42.7119568169,23.3550950564
2653,2653,Ж.к. София Парк,42.6197322472,23.3691586973
0695,0695,Гара Чепинци,42.7655968206,23.4345243906
0961,0961,Кметство Лозен,42.6017326026,23.4869507725
1163,1163,Бл.21 Ж.к.люлин 1,42.7288457482,23.2489284831
1235,1235,Център Кв. Ботунец,42.7395534289,23.5112610797
2693,2693,Село Долни Лозен,42.5995596735,23.4999129605
1607,1607,Ск На Нса,42.6438416799,23.3533166567
2221,2221,Ул. Търново,42.7229272808,23.2613682531
1717,1717,Община Люлин,42.7154647097,23.2506164128
1537,1537,Село Казичене,42.6622927969,23.4645380791
6065,6065,Детски Стационар,42.621932746,23.2259650296
2610,2610,Бул. Д-р П.дертлиев,42.7102197217,23.2456891654
1974,1974,Ул. Калиманци,42.6872633879,23.3659267424
0815,0815,Кв. Бусманци,42.6759496001,23.433490489
0554,0554,Държавна Печатница,42.6566505672,23.3848675678
0603,0603,Ж.к. Дианабад,42.6573716184,23.3377130193
2613,2613,Манастир Св.теодор Стратилат,42.8425803206,23.2771723041
2667,2667,Ул. Джерман - По Желание,42.7554218475,23.3189171869
1525,1525,Село Долни Богров,42.6972239606,23.4961857606
1965,1965,Ул. Искър,42.701691331,23.3339129983
1192,1192,Умбал Св. Анна,42.6628545733,23.3759199161
1315,1315,Пл. Сточна Гара,42.7057478373,23.3344221443
2135,2135,Ул. Проф. Д. Атанасов,42.6754880734,23.2895692281
0868,0868,Кв. Манастирски Ливади,42.6569501722,23.2849304262
0822,0822,Кв. Витоша,42.6503425346,23.3355749319
1142,1142,Ул. Зад Село,42.6834469206,23.459044122
1443,1443,Хайдушки Чукар,42.5970046562,23.3548568857
2772,2772,Село Желява,42.7445223929,23.6055339718
0538,0538,Производствен К-с Москва,42.7289281584,23.3243411816
2513,2513,Ул. Гергана,42.782670141,23.5186078331
2535,2535,Ул. Липа,42.7802850432,23.5180411721
2160,2160,Ул. Рилска Обител,42.7017160929,23.3791281004
0125,0125,Бл. 1 Ж.к. Горубляне,42.6350192792,23.4042320213
2142,2142,Ул. Просвета,42.7250774914,23.3176339036
6690,6690,Ул. Лешникова Гора - Временна,42.6308533351,23.3064666748
0885,0885,Кв. Орландовци,42.7180070295,23.3381750499
2083,2083,Ул. Опълченска,42.7011633105,23.3107183368
0173,0173,Бл. 245 Ж.к. Обеля 2,42.7469413567,23.2795842341
1062,1062,Метростанция Сливница,42.7274352935,23.2627367321
0195,0195,Бл. 35 Ж.к. Захарна Фабрика,42.7168972775,23.286743411
0202,0202,Бл. 351б Ж.к.младост 3,42.6372943402,23.3846498204
0462,0462,Гара Пионер,42.6665942067,23.3385941256
0068,0068,Рц По Протезиране,42.6767417011,23.2496416744
1286,1286,Пл. Мегдана,42.8219765956,23.2831220822
2139,2139,Ул.пробуда,42.7376351413,23.3272606595
2317,2317,Хлебозавода,42.7180725581,23.1881867934
203,203,Надежда,42.728014194,23.3009254436
0278,0278,Бул. Ал. Пушкин,42.6622464277,23.265364612
2830,2830,Бул. Княгиня Мария Луиза,42.7119199753,23.3177316666
2227,2227,Ул. Хайдут Сидер,42.7086521453,23.2881165717
0087,0087,База Газстрой - По Желание,42.7311516939,23.5726678377
1872,1872,Ул. Витиня,42.7005048423,23.372159291
0347,0347,Бул. Никола Петков,42.6696426912,23.2544014182
0405,0405,Булавто,42.7453999167,23.3301201127
1125,1125,Начало Кв. Гниляне,42.8052043013,23.3783209039
1263,1263,Петте Могили,42.7330111331,23.3896700366
2203,2203,Ул. Теменуга,42.8268788063,23.3534282761
2307,2307,Хиподрума Банкя,42.722618635,23.201152525
0322,0322,Бул. Д-р Петър Дертлиев,42.7103399913,23.2438549995
2399,2399,Западен Парк,42.7158083658,23.2838291347
1609,1609,Ск На Нса,42.6438098961,23.3450238811
2474,2474,Нова Телевизия,42.6795217551,23.4000461625
1227,1227,Кв. Факултета,42.6981631091,23.2721648693
0106,0106,Гробищен Парк Банкя,42.714355175,23.1645860482
2368,2368,Читалище Отец Паисий,42.6925144563,23.3594267552
0758,0758,Умбалсм Пирогов,42.6896883647,23.3056583405
